{"features": [
{"type":"Feature","geometry":{"type":"Point","coordinates":[-119.64567,36.33616]},"properties":{"ID":"0005793230","NAME":"CENTRAL VALLEY GENERAL HOSPITAL","ADDRESS":"1025 NORTH DOUTY STREET","CITY":"HANFORD","STATE":"CA","ZIP":"93230","ZIP4":"NOT AVAILABLE","TELEPHONE":"NOT AVAILABLE","TYPE":"GENERAL ACUTE CARE","STATUS":"CLOSED","POPULATION":49,"COUNTY":"KINGS","COUNTYFIPS":"06031","COUNTRY":"USA","LATITUDE":36.33615885000006,"LONGITUDE":-119.64566729799998,"NAICS_CODE":"622110","NAICS_DESC":"GENERAL MEDICAL AND SURGICAL HOSPITALS","SOURCE":"http://www.oshpd.ca.gov/hid/facility-listing.html","SOURCEDATE":"2016-02-04T00:00:00.000Z","VAL_METHOD":"IMAGERY/OTHER","VAL_DATE":"2014-02-10T00:00:00.000Z","WEBSITE":"http://www.hanfordhealth.com","STATE_ID":"NOT AVAILABLE","ALT_NAME":"NOT AVAILABLE","ST_FIPS":"06","OWNER":"PROPRIETARY","TTL_STAFF":-999,"BEDS":49,"TRAUMA":"NOT AVAILABLE","HELIPAD":"N"},"id":1},
{"type":"Feature","geometry":{"type":"Point","coordinates":[-118.81574,34.15494]},"properties":{"ID":"0053391362","NAME":"LOS ROBLES HOSPITAL & MEDICAL CENTER - EAST CAMPUS","ADDRESS":"150 VIA MERIDA","CITY":"WESTLAKE VILAGE","STATE":"CA","ZIP":"91362","ZIP4":"NOT AVAILABLE","TELEPHONE":"NOT AVAILABLE","TYPE":"GENERAL ACUTE CARE","STATUS":"OPEN","POPULATION":62,"COUNTY":"VENTURA","COUNTYFIPS":"06111","COUNTRY":"USA","LATITUDE":34.15493887200006,"LONGITUDE":-118.81573639099997,"NAICS_CODE":"622110","NAICS_DESC":"GENERAL MEDICAL AND SURGICAL HOSPITALS","SOURCE":"http://www.oshpd.ca.gov/hid/facility-listing.html","SOURCEDATE":"2019-08-02T00:00:00.000Z","VAL_METHOD":"IMAGERY/OTHER","VAL_DATE":"2014-02-10T00:00:00.000Z","WEBSITE":"http://www.losrobleshospital.com","STATE_ID":"NOT AVAILABLE","ALT_NAME":"NOT AVAILABLE","ST_FIPS":"06","OWNER":"PROPRIETARY","TTL_STAFF":-999,"BEDS":62,"TRAUMA":"NOT AVAILABLE","HELIPAD":"N"},"id":2},
{"type":"Feature","geometry":{"type":"Point","coordinates":[-118.18416,34.02365]},"properties":{"ID":"0011190023","NAME":"EAST LOS ANGELES DOCTORS HOSPITAL","ADDRESS":"4060 WHITTIER BOULEVARD","CITY":"LOS ANGELES","STATE":"CA","ZIP":"90023","ZIP4":"NOT AVAILABLE","TELEPHONE":"NOT AVAILABLE","TYPE":"GENERAL ACUTE CARE","STATUS":"OPEN","POPULATION":127,"COUNTY":"LOS ANGELES","COUNTYFIPS":"06037","COUNTRY":"USA","LATITUDE":34.02364730200003,"LONGITUDE":-118.18416480499997,"NAICS_CODE":"622110","NAICS_DESC":"GENERAL MEDICAL AND SURGICAL HOSPITALS","SOURCE":"http://www.oshpd.ca.gov/hid/facility-listing.html","SOURCEDATE":"2019-08-02T00:00:00.000Z","VAL_METHOD":"IMAGERY/OTHER","VAL_DATE":"2014-02-10T00:00:00.000Z","WEBSITE":"http://www.elalax.com","STATE_ID":"NOT AVAILABLE","ALT_NAME":"NOT AVAILABLE","ST_FIPS":"06","OWNER":"PROPRIETARY","TTL_STAFF":-999,"BEDS":127,"TRAUMA":"NOT AVAILABLE","HELIPAD":"N"},"id":3},
{"type":"Feature","geometry":{"type":"Point","coordinates":[-118.32523,34.09639]},"properties":{"ID":"0017090028","NAME":"SOUTHERN CALIFORNIA HOSPITAL AT HOLLYWOOD","ADDRESS":"6245 DE LONGPRE AVENUE","CITY":"HOLLYWOOD","STATE":"CA","ZIP":"90028","ZIP4":"NOT AVAILABLE","TELEPHONE":"(323) 462-2271","TYPE":"GENERAL ACUTE CARE","STATUS":"OPEN","POPULATION":100,"COUNTY":"LOS ANGELES","COUNTYFIPS":"06037","COUNTRY":"USA","LATITUDE":34.09639135700007,"LONGITUDE":-118.32523487099996,"NAICS_CODE":"622110","NAICS_DESC":"GENERAL MEDICAL AND SURGICAL HOSPITALS","SOURCE":"http://www.oshpd.ca.gov/hid/facility-listing.html","SOURCEDATE":"2019-08-02T00:00:00.000Z","VAL_METHOD":"IMAGERY/OTHER","VAL_DATE":"2014-02-10T00:00:00.000Z","WEBSITE":"http://sch-hollywood.com/","STATE_ID":"NOT AVAILABLE","ALT_NAME":"HOLLYWOOD COMMUNITY HOSPITAL OF HOLLYWOOD","ST_FIPS":"06","OWNER":"PROPRIETARY","TTL_STAFF":-999,"BEDS":100,"TRAUMA":"NOT AVAILABLE","HELIPAD":"N"},"id":4},
{"type":"Feature","geometry":{"type":"Point","coordinates":[-117.96744,34.06304]},"properties":{"ID":"0023691706","NAME":"KINDRED HOSPITAL BALDWIN PARK","ADDRESS":"14148 FRANCISQUITO AVENUE","CITY":"BALDWIN PARK","STATE":"CA","ZIP":"91706","ZIP4":"NOT AVAILABLE","TELEPHONE":"NOT AVAILABLE","TYPE":"GENERAL ACUTE CARE","STATUS":"OPEN","POPULATION":95,"COUNTY":"LOS ANGELES","COUNTYFIPS":"06037","COUNTRY":"USA","LATITUDE":34.06303893200004,"LONGITUDE":-117.96743778799998,"NAICS_CODE":"622110","NAICS_DESC":"GENERAL MEDICAL AND SURGICAL HOSPITALS","SOURCE":"http://www.oshpd.ca.gov/hid/facility-listing.html","SOURCEDATE":"2019-08-02T00:00:00.000Z","VAL_METHOD":"IMAGERY/OTHER","VAL_DATE":"2014-02-10T00:00:00.000Z","WEBSITE":"http://www.khbaldwinpark.com","STATE_ID":"NOT AVAILABLE","ALT_NAME":"NOT AVAILABLE","ST_FIPS":"06","OWNER":"PROPRIETARY","TTL_STAFF":-999,"BEDS":95,"TRAUMA":"NOT AVAILABLE","HELIPAD":"N"},"id":5},
{"type":"Feature","geometry":{"type":"Point","coordinates":[-118.1484,33.85971]},"properties":{"ID":"0025190712","NAME":"LAKEWOOD REGIONAL MEDICAL CENTER","ADDRESS":"3700 EAST SOUTH STREET","CITY":"LAKEWOOD","STATE":"CA","ZIP":"90712","ZIP4":"NOT AVAILABLE","TELEPHONE":"NOT AVAILABLE","TYPE":"GENERAL ACUTE CARE","STATUS":"OPEN","POPULATION":172,"COUNTY":"LOS ANGELES","COUNTYFIPS":"06037","COUNTRY":"USA","LATITUDE":33.859706620000054,"LONGITUDE":-118.14840296499995,"NAICS_CODE":"622110","NAICS_DESC":"GENERAL MEDICAL AND SURGICAL HOSPITALS","SOURCE":"http://www.oshpd.ca.gov/hid/facility-listing.html","SOURCEDATE":"2019-08-02T00:00:00.000Z","VAL_METHOD":"IMAGERY/OTHER","VAL_DATE":"2014-02-10T00:00:00.000Z","WEBSITE":"http://www.lakewoodregional.com","STATE_ID":"NOT AVAILABLE","ALT_NAME":"NOT AVAILABLE","ST_FIPS":"06","OWNER":"PROPRIETARY","TTL_STAFF":-999,"BEDS":172,"TRAUMA":"NOT AVAILABLE","HELIPAD":"N"},"id":6},
{"type":"Feature","geometry":{"type":"Point","coordinates":[-117.99267,34.14876]},"properties":{"ID":"0030791016","NAME":"MONROVIA MEMORIAL HOSPITAL","ADDRESS":"323 SOUTH HELIOTROPE AVENUE","CITY":"MONROVIA","STATE":"CA","ZIP":"91016","ZIP4":"NOT AVAILABLE","TELEPHONE":"NOT AVAILABLE","TYPE":"GENERAL ACUTE CARE","STATUS":"OPEN","POPULATION":49,"COUNTY":"LOS ANGELES","COUNTYFIPS":"06037","COUNTRY":"USA","LATITUDE":34.148758659000066,"LONGITUDE":-117.99266765699997,"NAICS_CODE":"622110","NAICS_DESC":"GENERAL MEDICAL AND SURGICAL HOSPITALS","SOURCE":"http://www.oshpd.ca.gov/hid/facility-listing.html","SOURCEDATE":"2019-08-02T00:00:00.000Z","VAL_METHOD":"IMAGERY/OTHER","VAL_DATE":"2014-02-10T00:00:00.000Z","WEBSITE":"http://www.monroviamemorial.com","STATE_ID":"NOT AVAILABLE","ALT_NAME":"NOT AVAILABLE","ST_FIPS":"06","OWNER":"PROPRIETARY","TTL_STAFF":-999,"BEDS":49,"TRAUMA":"NOT AVAILABLE","HELIPAD":"N"},"id":7},
{"type":"Feature","geometry":{"type":"Point","coordinates":[-118.13826,34.04947]},"properties":{"ID":"0030891754","NAME":"MONTEREY PARK HOSPITAL","ADDRESS":"900 SOUTH ATLANTIC BOULEVARD","CITY":"MONTEREY PARK","STATE":"CA","ZIP":"91754","ZIP4":"NOT AVAILABLE","TELEPHONE":"NOT AVAILABLE","TYPE":"GENERAL ACUTE CARE","STATUS":"OPEN","POPULATION":101,"COUNTY":"LOS ANGELES","COUNTYFIPS":"06037","COUNTRY":"USA","LATITUDE":34.04946605900005,"LONGITUDE":-118.13826223099994,"NAICS_CODE":"622110","NAICS_DESC":"GENERAL MEDICAL AND SURGICAL HOSPITALS","SOURCE":"http://www.oshpd.ca.gov/hid/facility-listing.html","SOURCEDATE":"2019-08-02T00:00:00.000Z","VAL_METHOD":"IMAGERY/OTHER","VAL_DATE":"2014-02-10T00:00:00.000Z","WEBSITE":"http://www.montereyparkhosp.com","STATE_ID":"NOT AVAILABLE","ALT_NAME":"NOT AVAILABLE","ST_FIPS":"06","OWNER":"PROPRIETARY","TTL_STAFF":-999,"BEDS":101,"TRAUMA":"NOT AVAILABLE","HELIPAD":"N"},"id":8},
{"type":"Feature","geometry":{"type":"Point","coordinates":[-118.3561,33.82391]},"properties":{"ID":"0047090505","NAME":"STAR VIEW ADOLESCENT - P H F","ADDRESS":"4025 WEST 226 STREET","CITY":"TORRANCE","STATE":"CA","ZIP":"90505","ZIP4":"NOT AVAILABLE","TELEPHONE":"NOT AVAILABLE","TYPE":"PSYCHIATRIC","STATUS":"OPEN","POPULATION":16,"COUNTY":"LOS ANGELES","COUNTYFIPS":"06037","COUNTRY":"USA","LATITUDE":33.82391446400004,"LONGITUDE":-118.35609694699997,"NAICS_CODE":"622210","NAICS_DESC":"PSYCHIATRIC AND SUBSTANCE ABUSE HOSPITALS","SOURCE":"http://www.oshpd.ca.gov/hid/facility-listing.html","SOURCEDATE":"2019-08-02T00:00:00.000Z","VAL_METHOD":"IMAGERY/OTHER","VAL_DATE":"2014-02-10T00:00:00.000Z","WEBSITE":"http://www.starsinc.com/","STATE_ID":"NOT AVAILABLE","ALT_NAME":"NOT AVAILABLE","ST_FIPS":"06","OWNER":"PROPRIETARY","TTL_STAFF":-999,"BEDS":16,"TRAUMA":"NOT AVAILABLE","HELIPAD":"N"},"id":9},
{"type":"Feature","geometry":{"type":"Point","coordinates":[-117.55386,33.85808]},"properties":{"ID":"0009092879","NAME":"CORONA REGIONAL MEDICAL CENTER-MAGNOLIA","ADDRESS":"730 MAGNOLIA AVENUE","CITY":"CORONA","STATE":"CA","ZIP":"92879","ZIP4":"NOT AVAILABLE","TELEPHONE":"NOT AVAILABLE","TYPE":"GENERAL ACUTE CARE","STATUS":"OPEN","POPULATION":78,"COUNTY":"RIVERSIDE","COUNTYFIPS":"06065","COUNTRY":"USA","LATITUDE":33.85808330700007,"LONGITUDE":-117.55385803499996,"NAICS_CODE":"622110","NAICS_DESC":"GENERAL MEDICAL AND SURGICAL HOSPITALS","SOURCE":"http://www.oshpd.ca.gov/hid/facility-listing.html","SOURCEDATE":"2019-08-02T00:00:00.000Z","VAL_METHOD":"IMAGERY/OTHER","VAL_DATE":"2014-02-10T00:00:00.000Z","WEBSITE":"http://www.coronaregional.com","STATE_ID":"NOT AVAILABLE","ALT_NAME":"NOT AVAILABLE","ST_FIPS":"06","OWNER":"PROPRIETARY","TTL_STAFF":-999,"BEDS":78,"TRAUMA":"NOT AVAILABLE","HELIPAD":"N"},"id":10},
{"type":"Feature","geometry":{"type":"Point","coordinates":[-120.54574,41.48006]},"properties":{"ID":"0030696101","NAME":"MODOC MEDICAL CENTER","ADDRESS":"228 MC DOWELL STREET","CITY":"ALTURAS","STATE":"CA","ZIP":"96101","ZIP4":"NOT AVAILABLE","TELEPHONE":"NOT AVAILABLE","TYPE":"GENERAL ACUTE CARE","STATUS":"OPEN","POPULATION":87,"COUNTY":"MODOC","COUNTYFIPS":"06049","COUNTRY":"USA","LATITUDE":41.48005625500008,"LONGITUDE":-120.54574398699998,"NAICS_CODE":"622110","NAICS_DESC":"GENERAL MEDICAL AND SURGICAL HOSPITALS","SOURCE":"http://www.oshpd.ca.gov/hid/facility-listing.html","SOURCEDATE":"2019-08-02T00:00:00.000Z","VAL_METHOD":"IMAGERY/OTHER","VAL_DATE":"2014-02-10T00:00:00.000Z","WEBSITE":"http://www.modocmedicalcenter.org","STATE_ID":"NOT AVAILABLE","ALT_NAME":"NOT AVAILABLE","ST_FIPS":"06","OWNER":"GOVERNMENT - LOCAL","TTL_STAFF":-999,"BEDS":87,"TRAUMA":"NOT AVAILABLE","HELIPAD":"Y"},"id":11},
{"type":"Feature","geometry":{"type":"Point","coordinates":[-121.64598,36.65903]},"properties":{"ID":"0038593901","NAME":"SALINAS VALLEY MEMORIAL HOSPITAL","ADDRESS":"450 EAST ROMIE LANE","CITY":"SALINAS","STATE":"CA","ZIP":"93901","ZIP4":"NOT AVAILABLE","TELEPHONE":"NOT AVAILABLE","TYPE":"GENERAL ACUTE CARE","STATUS":"OPEN","POPULATION":269,"COUNTY":"MONTEREY","COUNTYFIPS":"06053","COUNTRY":"USA","LATITUDE":36.65903045600004,"LONGITUDE":-121.64598380399997,"NAICS_CODE":"622110","NAICS_DESC":"GENERAL MEDICAL AND SURGICAL HOSPITALS","SOURCE":"http://www.oshpd.ca.gov/hid/facility-listing.html","SOURCEDATE":"2019-08-02T00:00:00.000Z","VAL_METHOD":"IMAGERY/OTHER","VAL_DATE":"2014-02-10T00:00:00.000Z","WEBSITE":"http://www.svmh.com","STATE_ID":"NOT AVAILABLE","ALT_NAME":"NOT AVAILABLE","ST_FIPS":"06","OWNER":"GOVERNMENT - DISTRICT/AUTHORITY","TTL_STAFF":-999,"BEDS":269,"TRAUMA":"NOT AVAILABLE","HELIPAD":"N"},"id":12},
{"type":"Feature","geometry":{"type":"Point","coordinates":[-97.39621,27.77851]},"properties":{"ID":"0012678414","NAME":"CORPUS CHRISTI SPECIALTY HOSPITAL","ADDRESS":"1310 THIRD STREET","CITY":"CORPUS CHRISTI","STATE":"TX","ZIP":"78414","ZIP4":"NOT AVAILABLE","TELEPHONE":"(361) 888-4323","TYPE":"GENERAL ACUTE CARE","STATUS":"CLOSED","POPULATION":189,"COUNTY":"NUECES","COUNTYFIPS":"48355","COUNTRY":"USA","LATITUDE":27.778510168000025,"LONGITUDE":-97.39620831299999,"NAICS_CODE":"622110","NAICS_DESC":"GENERAL MEDICAL AND SURGICAL HOSPITALS","SOURCE":"http://www.dshs.state.tx.us/chs/hosp/hosp2.shtm","SOURCEDATE":"2014-09-23T00:00:00.000Z","VAL_METHOD":"IMAGERY/OTHER","VAL_DATE":"2020-05-08T00:00:00.000Z","WEBSITE":"NOT AVAILABLE","STATE_ID":"NOT AVAILABLE","ALT_NAME":"NOT AVAILABLE","ST_FIPS":"48","OWNER":"PROPRIETARY","TTL_STAFF":-999,"BEDS":189,"TRAUMA":"NOT AVAILABLE","HELIPAD":"Y"},"id":13},
{"type":"Feature","geometry":{"type":"Point","coordinates":[-117.83389,33.78273]},"properties":{"ID":"0015992866","NAME":"HEALTHBRIDGE CHILDREN'S HOSPITAL-ORANGE","ADDRESS":"393 S. TUSTIN STREET","CITY":"ORANGE","STATE":"CA","ZIP":"92866","ZIP4":"NOT AVAILABLE","TELEPHONE":"NOT AVAILABLE","TYPE":"CHILDREN","STATUS":"OPEN","POPULATION":27,"COUNTY":"ORANGE","COUNTYFIPS":"06059","COUNTRY":"USA","LATITUDE":33.78272717300007,"LONGITUDE":-117.83389186499994,"NAICS_CODE":"622110","NAICS_DESC":"CHILDREN'S HOSPITALS, GENERAL","SOURCE":"http://www.oshpd.ca.gov/hid/facility-listing.html","SOURCEDATE":"2019-08-02T00:00:00.000Z","VAL_METHOD":"IMAGERY/OTHER","VAL_DATE":"2014-02-10T00:00:00.000Z","WEBSITE":"http://www.healthbridgeorange.com","STATE_ID":"NOT AVAILABLE","ALT_NAME":"NOT AVAILABLE","ST_FIPS":"06","OWNER":"PROPRIETARY","TTL_STAFF":-999,"BEDS":27,"TRAUMA":"NOT AVAILABLE","HELIPAD":"N"},"id":14},
{"type":"Feature","geometry":{"type":"Point","coordinates":[-117.83106,33.74746]},"properties":{"ID":"0016192680","NAME":"HEALTHSOUTH TUSTIN REHABILITATION HOSPITAL","ADDRESS":"14851 YORBA STREET","CITY":"TUSTIN","STATE":"CA","ZIP":"92680","ZIP4":"NOT AVAILABLE","TELEPHONE":"NOT AVAILABLE","TYPE":"GENERAL ACUTE CARE","STATUS":"OPEN","POPULATION":48,"COUNTY":"ORANGE","COUNTYFIPS":"06059","COUNTRY":"USA","LATITUDE":33.747460740000065,"LONGITUDE":-117.83105563099997,"NAICS_CODE":"622110","NAICS_DESC":"GENERAL MEDICAL AND SURGICAL HOSPITALS","SOURCE":"http://www.oshpd.ca.gov/hid/facility-listing.html","SOURCEDATE":"2019-08-02T00:00:00.000Z","VAL_METHOD":"IMAGERY/OTHER","VAL_DATE":"2014-02-10T00:00:00.000Z","WEBSITE":"http://www.tustinrehab.com","STATE_ID":"NOT AVAILABLE","ALT_NAME":"NOT AVAILABLE","ST_FIPS":"06","OWNER":"PROPRIETARY","TTL_STAFF":-999,"BEDS":48,"TRAUMA":"NOT AVAILABLE","HELIPAD":"N"},"id":15},
{"type":"Feature","geometry":{"type":"Point","coordinates":[-117.89395,33.9345]},"properties":{"ID":"0023792621","NAME":"KINDRED HOSPITAL BREA","ADDRESS":"875 NORTH BREA BOULEVARD","CITY":"BREA","STATE":"CA","ZIP":"92621","ZIP4":"NOT AVAILABLE","TELEPHONE":"NOT AVAILABLE","TYPE":"GENERAL ACUTE CARE","STATUS":"OPEN","POPULATION":86,"COUNTY":"ORANGE","COUNTYFIPS":"06059","COUNTRY":"USA","LATITUDE":33.934495886000036,"LONGITUDE":-117.89394879199995,"NAICS_CODE":"622110","NAICS_DESC":"GENERAL MEDICAL AND SURGICAL HOSPITALS","SOURCE":"http://www.oshpd.ca.gov/hid/facility-listing.html","SOURCEDATE":"2019-08-02T00:00:00.000Z","VAL_METHOD":"IMAGERY/OTHER","VAL_DATE":"2014-02-10T00:00:00.000Z","WEBSITE":"http://www.kindredhospitalbrea.com/","STATE_ID":"NOT AVAILABLE","ALT_NAME":"NOT AVAILABLE","ST_FIPS":"06","OWNER":"PROPRIETARY","TTL_STAFF":-999,"BEDS":86,"TRAUMA":"NOT AVAILABLE","HELIPAD":"N"},"id":16},
{"type":"Feature","geometry":{"type":"Point","coordinates":[-117.99526,33.76353]},"properties":{"ID":"0024392683","NAME":"KINDRED HOSPITAL WESTMINSTER","ADDRESS":"200 HOSPITAL CIRCLE","CITY":"WESTMINSTER","STATE":"CA","ZIP":"92683","ZIP4":"NOT AVAILABLE","TELEPHONE":"NOT AVAILABLE","TYPE":"GENERAL ACUTE CARE","STATUS":"OPEN","POPULATION":109,"COUNTY":"ORANGE","COUNTYFIPS":"06059","COUNTRY":"USA","LATITUDE":33.76353320900006,"LONGITUDE":-117.99525596299998,"NAICS_CODE":"622110","NAICS_DESC":"GENERAL MEDICAL AND SURGICAL HOSPITALS","SOURCE":"http://www.oshpd.ca.gov/hid/facility-listing.html","SOURCEDATE":"2019-08-02T00:00:00.000Z","VAL_METHOD":"IMAGERY/OTHER","VAL_DATE":"2014-02-10T00:00:00.000Z","WEBSITE":"http://www.khwestminster.com/","STATE_ID":"NOT AVAILABLE","ALT_NAME":"NOT AVAILABLE","ST_FIPS":"06","OWNER":"PROPRIETARY","TTL_STAFF":-999,"BEDS":109,"TRAUMA":"NOT AVAILABLE","HELIPAD":"N"},"id":17},
{"type":"Feature","geometry":{"type":"Point","coordinates":[-119.34823,36.32084]},"properties":{"ID":"0022093277","NAME":"KAWEAH DELTA MENTAL HEALTH HOSPITAL D/P APH","ADDRESS":"1100 SO. AKERS STREET","CITY":"VISALIA","STATE":"CA","ZIP":"93277","ZIP4":"NOT AVAILABLE","TELEPHONE":"NOT AVAILABLE","TYPE":"GENERAL ACUTE CARE","STATUS":"OPEN","POPULATION":63,"COUNTY":"TULARE","COUNTYFIPS":"06107","COUNTRY":"USA","LATITUDE":36.320843946000025,"LONGITUDE":-119.34823452799998,"NAICS_CODE":"622110","NAICS_DESC":"GENERAL MEDICAL AND SURGICAL HOSPITALS","SOURCE":"http://www.oshpd.ca.gov/hid/facility-listing.html","SOURCEDATE":"2019-08-02T00:00:00.000Z","VAL_METHOD":"IMAGERY/OTHER","VAL_DATE":"2014-02-10T00:00:00.000Z","WEBSITE":"http://www.kaweahdelta.org","STATE_ID":"NOT AVAILABLE","ALT_NAME":"NOT AVAILABLE","ST_FIPS":"06","OWNER":"GOVERNMENT - DISTRICT/AUTHORITY","TTL_STAFF":-999,"BEDS":63,"TRAUMA":"NOT AVAILABLE","HELIPAD":"N"},"id":18},
{"type":"Feature","geometry":{"type":"Point","coordinates":[-82.00506,30.84528]},"properties":{"ID":"0001931537","NAME":"CHARLTON MEMORIAL HOSPITAL","ADDRESS":"2449 THIRD STREET","CITY":"FOLKSTON","STATE":"GA","ZIP":"31537","ZIP4":"NOT AVAILABLE","TELEPHONE":"NOT AVAILABLE","TYPE":"GENERAL ACUTE CARE","STATUS":"CLOSED","POPULATION":-999,"COUNTY":"CHARLTON","COUNTYFIPS":"13049","COUNTRY":"USA","LATITUDE":30.84527534800003,"LONGITUDE":-82.00505739199997,"NAICS_CODE":"622110","NAICS_DESC":"GENERAL MEDICAL AND SURGICAL HOSPITALS","SOURCE":"http://167.193.144.247/","SOURCEDATE":"2012-11-24T00:00:00.000Z","VAL_METHOD":"IMAGERY/OTHER","VAL_DATE":"2014-02-10T00:00:00.000Z","WEBSITE":"http://www.southcoast.org/charlton/","STATE_ID":"14","ALT_NAME":"NOT AVAILABLE","ST_FIPS":"13","OWNER":"GOVERNMENT - DISTRICT/AUTHORITY","TTL_STAFF":-999,"BEDS":-999,"TRAUMA":"NOT AVAILABLE","HELIPAD":"Y"},"id":19},
{"type":"Feature","geometry":{"type":"Point","coordinates":[-91.79452,30.00691]},"properties":{"ID":"0005870563","NAME":"DAUTERIVE HOSPITAL","ADDRESS":"600 N LEWIS AVE.","CITY":"NEW IBERIA","STATE":"LA","ZIP":"70563","ZIP4":"NOT AVAILABLE","TELEPHONE":"(337) 365-7311","TYPE":"GENERAL ACUTE CARE","STATUS":"OPEN","POPULATION":103,"COUNTY":"IBERIA","COUNTYFIPS":"22045","COUNTRY":"USA","LATITUDE":30.00690697700003,"LONGITUDE":-91.79452385299999,"NAICS_CODE":"622110","NAICS_DESC":"GENERAL MEDICAL AND SURGICAL HOSPITALS","SOURCE":"http://new.dhh.louisiana.gov/index.cfm/directory/category/169","SOURCEDATE":"2019-08-16T00:00:00.000Z","VAL_METHOD":"IMAGERY/OTHER","VAL_DATE":"2014-02-10T00:00:00.000Z","WEBSITE":"http://www.dauterivehospital.com","STATE_ID":"NOT AVAILABLE","ALT_NAME":"NOT AVAILABLE","ST_FIPS":"22","OWNER":"PROPRIETARY","TTL_STAFF":-999,"BEDS":103,"TRAUMA":"NOT AVAILABLE","HELIPAD":"Y"},"id":20},
{"type":"Feature","geometry":{"type":"Point","coordinates":[-95.4389,31.3236]},"properties":{"ID":"0013177954","NAME":"CROCKETT MEDICAL CENTER","ADDRESS":"1100 EAST LOOP 304","CITY":"CROCKETT","STATE":"TX","ZIP":"77954","ZIP4":"NOT AVAILABLE","TELEPHONE":"(936( 546-3891","TYPE":"GENERAL ACUTE CARE","STATUS":"OPEN","POPULATION":25,"COUNTY":"HOUSTON","COUNTYFIPS":"48225","COUNTRY":"USA","LATITUDE":31.323603640000044,"LONGITUDE":-95.43889930599994,"NAICS_CODE":"622110","NAICS_DESC":"GENERAL MEDICAL AND SURGICAL HOSPITALS","SOURCE":"https://hhs.texas.gov/doing-business-hhs/provider-portals/health-care-facilities-regulation","SOURCEDATE":"2019-09-03T00:00:00.000Z","VAL_METHOD":"IMAGERY/OTHER","VAL_DATE":"2020-05-08T00:00:00.000Z","WEBSITE":"http://crockettmedicalcenter.com/","STATE_ID":"NOT AVAILABLE","ALT_NAME":"EAST TEXAS MEDICAL CENTER - CROCKETT","ST_FIPS":"48","OWNER":"NON-PROFIT","TTL_STAFF":-999,"BEDS":25,"TRAUMA":"NOT AVAILABLE","HELIPAD":"Y"},"id":21},
{"type":"Feature","geometry":{"type":"Point","coordinates":[-92.44014,31.32738]},"properties":{"ID":"0004671360","NAME":"CENTRAL LOUISIANA STATE HOSPITAL","ADDRESS":"242 W SHAMROCK AVE","CITY":"PINEVILLE","STATE":"LA","ZIP":"71360","ZIP4":"NOT AVAILABLE","TELEPHONE":"(318) 484-6200","TYPE":"PSYCHIATRIC","STATUS":"OPEN","POPULATION":128,"COUNTY":"RAPIDES","COUNTYFIPS":"22079","COUNTRY":"USA","LATITUDE":31.327378942000053,"LONGITUDE":-92.44013511299994,"NAICS_CODE":"622210","NAICS_DESC":"PSYCHIATRIC AND SUBSTANCE ABUSE HOSPITALS","SOURCE":"http://new.dhh.louisiana.gov/index.cfm/directory/category/169","SOURCEDATE":"2019-08-16T00:00:00.000Z","VAL_METHOD":"IMAGERY/OTHER","VAL_DATE":"2014-02-10T00:00:00.000Z","WEBSITE":"http://www.dhh.la.gov/omh/inpatient-serv/clsh.htm","STATE_ID":"NOT AVAILABLE","ALT_NAME":"NOT AVAILABLE","ST_FIPS":"22","OWNER":"GOVERNMENT - STATE","TTL_STAFF":-999,"BEDS":128,"TRAUMA":"NOT AVAILABLE","HELIPAD":"N"},"id":22},
{"type":"Feature","geometry":{"type":"Point","coordinates":[-92.65665,32.82399]},"properties":{"ID":"0015671222","NAME":"REEVES MEMORIAL MEDICAL CENTER","ADDRESS":"409 1ST ST","CITY":"BERNICE","STATE":"LA","ZIP":"71222","ZIP4":"NOT AVAILABLE","TELEPHONE":"(318) 285-9066","TYPE":"GENERAL ACUTE CARE","STATUS":"OPEN","POPULATION":11,"COUNTY":"UNION","COUNTYFIPS":"22111","COUNTRY":"USA","LATITUDE":32.823991670000055,"LONGITUDE":-92.65664868099998,"NAICS_CODE":"622110","NAICS_DESC":"GENERAL MEDICAL AND SURGICAL HOSPITALS","SOURCE":"http://new.dhh.louisiana.gov/index.cfm/directory/category/169","SOURCEDATE":"2019-08-16T00:00:00.000Z","VAL_METHOD":"IMAGERY/OTHER","VAL_DATE":"2013-10-08T00:00:00.000Z","WEBSITE":"http://reevesmemorial.com/","STATE_ID":"NOT AVAILABLE","ALT_NAME":"NOT AVAILABLE","ST_FIPS":"22","OWNER":"GOVERNMENT - DISTRICT/AUTHORITY","TTL_STAFF":-999,"BEDS":11,"TRAUMA":"NOT AVAILABLE","HELIPAD":"Y"},"id":23},
{"type":"Feature","geometry":{"type":"Point","coordinates":[-92.40563,32.77613]},"properties":{"ID":"0016971241","NAME":"SERENITY SPRINGS SPECIALTY HOSPITAL","ADDRESS":"309 N MAIN ST","CITY":"FARMERVILLE","STATE":"LA","ZIP":"71241","ZIP4":"NOT AVAILABLE","TELEPHONE":"(318) 202-3860","TYPE":"PSYCHIATRIC","STATUS":"OPEN","POPULATION":18,"COUNTY":"UNION","COUNTYFIPS":"22111","COUNTRY":"USA","LATITUDE":32.776127934000044,"LONGITUDE":-92.40562584799994,"NAICS_CODE":"622210","NAICS_DESC":"PSYCHIATRIC AND SUBSTANCE ABUSE HOSPITALS","SOURCE":"http://new.dhh.louisiana.gov/index.cfm/directory/category/169","SOURCEDATE":"2019-08-16T00:00:00.000Z","VAL_METHOD":"IMAGERY/OTHER","VAL_DATE":"2017-12-15T00:00:00.000Z","WEBSITE":"http://www.serenityhospital.com","STATE_ID":"NOT AVAILABLE","ALT_NAME":"NOT AVAILABLE","ST_FIPS":"22","OWNER":"PROPRIETARY","TTL_STAFF":-999,"BEDS":18,"TRAUMA":"NOT AVAILABLE","HELIPAD":"N"},"id":24},
{"type":"Feature","geometry":{"type":"Point","coordinates":[-91.42607,31.56117]},"properties":{"ID":"0015371373","NAME":"RIVERBRIDGE SPECIALTY HOSPITAL","ADDRESS":"209 FRONT ST.","CITY":"VIDALIA","STATE":"LA","ZIP":"71373","ZIP4":"NOT AVAILABLE","TELEPHONE":"(800) 269-8034","TYPE":"LONG TERM CARE","STATUS":"OPEN","POPULATION":40,"COUNTY":"CONCORDIA","COUNTYFIPS":"22029","COUNTRY":"USA","LATITUDE":31.561174863000076,"LONGITUDE":-91.42606698299994,"NAICS_CODE":"622310","NAICS_DESC":"SPECIALTY (EXCEPT PSYCHIATRIC AND SUBSTANCE ABUSE) HOSPITALS","SOURCE":"http://new.dhh.louisiana.gov/index.cfm/directory/category/169","SOURCEDATE":"2019-08-16T00:00:00.000Z","VAL_METHOD":"IMAGERY/OTHER","VAL_DATE":"2014-02-10T00:00:00.000Z","WEBSITE":"http://www.promise-misslou.com","STATE_ID":"NOT AVAILABLE","ALT_NAME":"NOT AVAILABLE","ST_FIPS":"22","OWNER":"PROPRIETARY","TTL_STAFF":-999,"BEDS":40,"TRAUMA":"NOT AVAILABLE","HELIPAD":"N"},"id":25},
{"type":"Feature","geometry":{"type":"Point","coordinates":[-92.09914,32.06004]},"properties":{"ID":"0005371418","NAME":"CITIZENS MEDICAL CENTER","ADDRESS":"7939 HIGHWAY 165","CITY":"COLUMBIA","STATE":"LA","ZIP":"71418","ZIP4":"NOT AVAILABLE","TELEPHONE":"(318) 649-6106","TYPE":"GENERAL ACUTE CARE","STATUS":"OPEN","POPULATION":40,"COUNTY":"CALDWELL","COUNTYFIPS":"22021","COUNTRY":"USA","LATITUDE":32.06003995100008,"LONGITUDE":-92.09913766899996,"NAICS_CODE":"622110","NAICS_DESC":"GENERAL MEDICAL AND SURGICAL HOSPITALS","SOURCE":"http://new.dhh.louisiana.gov/index.cfm/directory/category/169","SOURCEDATE":"2019-08-16T00:00:00.000Z","VAL_METHOD":"IMAGERY/OTHER","VAL_DATE":"2014-02-11T00:00:00.000Z","WEBSITE":"NOT AVAILABLE","STATE_ID":"NOT AVAILABLE","ALT_NAME":"NOT AVAILABLE","ST_FIPS":"22","OWNER":"GOVERNMENT - DISTRICT/AUTHORITY","TTL_STAFF":-999,"BEDS":40,"TRAUMA":"NOT AVAILABLE","HELIPAD":"N"},"id":26},
{"type":"Feature","geometry":{"type":"Point","coordinates":[-83.11897,34.28325]},"properties":{"ID":"0022830662","NAME":"BROWN MEMORIAL CONVALESCENT CENTER","ADDRESS":"545 COOK STREET","CITY":"ROYSTON","STATE":"GA","ZIP":"30662","ZIP4":"NOT AVAILABLE","TELEPHONE":"(706) 245-1900","TYPE":"LONG TERM CARE","STATUS":"CLOSED","POPULATION":144,"COUNTY":"FRANKLIN","COUNTYFIPS":"13119","COUNTRY":"USA","LATITUDE":34.28325036500007,"LONGITUDE":-83.11897236499999,"NAICS_CODE":"622310","NAICS_DESC":"EXTENDED CARE HOSPITALS (EXCEPT MENTAL, SUBSTANCE ABUSE)","SOURCE":"http://167.193.144.247/","SOURCEDATE":"2012-11-24T00:00:00.000Z","VAL_METHOD":"IMAGERY/OTHER","VAL_DATE":"2014-02-10T00:00:00.000Z","WEBSITE":"http://tycobbhealthcare.com/programsservices/longtermcare/brownmemorialconvalescentcenter.aspx","STATE_ID":"NOT AVAILABLE","ALT_NAME":"NOT AVAILABLE","ST_FIPS":"13","OWNER":"PROPRIETARY","TTL_STAFF":-999,"BEDS":144,"TRAUMA":"NOT AVAILABLE","HELIPAD":"N"},"id":27},
{"type":"Feature","geometry":{"type":"Point","coordinates":[-118.19339,33.80709]},"properties":{"ID":"0070990806","NAME":"COLLEGE MEDICAL CENTER","ADDRESS":"2776 PACIFIC AVENUE","CITY":"LONG BEACH","STATE":"CA","ZIP":"90806","ZIP4":"NOT AVAILABLE","TELEPHONE":"NOT AVAILABLE","TYPE":"GENERAL ACUTE CARE","STATUS":"OPEN","POPULATION":121,"COUNTY":"LOS ANGELES","COUNTYFIPS":"06037","COUNTRY":"USA","LATITUDE":33.807092870000076,"LONGITUDE":-118.19338992899998,"NAICS_CODE":"622110","NAICS_DESC":"GENERAL MEDICAL AND SURGICAL HOSPITALS","SOURCE":"http://www.oshpd.ca.gov/hid/facility-listing.html","SOURCEDATE":"2019-08-02T00:00:00.000Z","VAL_METHOD":"IMAGERY/OTHER","VAL_DATE":"2015-01-13T00:00:00.000Z","WEBSITE":"http://www.collegemedicalcenter.com","STATE_ID":"NOT AVAILABLE","ALT_NAME":"PACIFIC HOSPITAL OF LONG BEACH","ST_FIPS":"06","OWNER":"PROPRIETARY","TTL_STAFF":-999,"BEDS":121,"TRAUMA":"NOT AVAILABLE","HELIPAD":"N"},"id":28},
{"type":"Feature","geometry":{"type":"Point","coordinates":[-122.16465,37.70641]},"properties":{"ID":"0071794577","NAME":"KAISER FOUNDATION HOSPITAL - SAN LEANDRO","ADDRESS":"2500 MERCED STREET","CITY":"SAN LEANDRO","STATE":"CA","ZIP":"94577","ZIP4":"NOT AVAILABLE","TELEPHONE":"NOT AVAILABLE","TYPE":"GENERAL ACUTE CARE","STATUS":"OPEN","POPULATION":216,"COUNTY":"ALAMEDA","COUNTYFIPS":"06001","COUNTRY":"USA","LATITUDE":37.706406198000025,"LONGITUDE":-122.16465451799996,"NAICS_CODE":"622110","NAICS_DESC":"GENERAL MEDICAL AND SURGICAL HOSPITALS","SOURCE":"http://www.oshpd.ca.gov/hid/facility-listing.html","SOURCEDATE":"2019-08-02T00:00:00.000Z","VAL_METHOD":"IMAGERY/OTHER","VAL_DATE":"2015-01-14T00:00:00.000Z","WEBSITE":"http://www.kaiserpermanente.org","STATE_ID":"NOT AVAILABLE","ALT_NAME":"NOT AVAILABLE","ST_FIPS":"06","OWNER":"NOT AVAILABLE","TTL_STAFF":-999,"BEDS":216,"TRAUMA":"NOT AVAILABLE","HELIPAD":"N"},"id":29},
{"type":"Feature","geometry":{"type":"Point","coordinates":[-118.16227,33.88463]},"properties":{"ID":"0072590723","NAME":"KINDRED HOSPITAL PARAMOUNT","ADDRESS":"16453 SOUTH COLORADO AVENUE","CITY":"PARAMOUNT","STATE":"CA","ZIP":"90723","ZIP4":"NOT AVAILABLE","TELEPHONE":"NOT AVAILABLE","TYPE":"LONG TERM CARE","STATUS":"OPEN","POPULATION":177,"COUNTY":"LOS ANGELES","COUNTYFIPS":"06037","COUNTRY":"USA","LATITUDE":33.88463186100006,"LONGITUDE":-118.16226706599997,"NAICS_CODE":"622310","NAICS_DESC":"SPECIALTY (EXCEPT PSYCHIATRIC AND SUBSTANCE ABUSE) HOSPITALS","SOURCE":"http://www.oshpd.ca.gov/hid/facility-listing.html","SOURCEDATE":"2019-08-02T00:00:00.000Z","VAL_METHOD":"IMAGERY/OTHER","VAL_DATE":"2015-01-14T00:00:00.000Z","WEBSITE":"http://www.promiseeastla.com/","STATE_ID":"NOT AVAILABLE","ALT_NAME":"NOT AVAILABLE","ST_FIPS":"06","OWNER":"PROPRIETARY","TTL_STAFF":-999,"BEDS":177,"TRAUMA":"NOT AVAILABLE","HELIPAD":"N"},"id":30},
{"type":"Feature","geometry":{"type":"Point","coordinates":[-118.06799,33.92803]},"properties":{"ID":"0073790650","NAME":"DEPARTMENT OF STATE HOSPITAL-METROPOLITAN","ADDRESS":"11401 BLOOMFIELD AVENUE","CITY":"NORWALK","STATE":"CA","ZIP":"90650","ZIP4":"NOT AVAILABLE","TELEPHONE":"(562) 863-7011","TYPE":"PSYCHIATRIC","STATUS":"OPEN","POPULATION":1265,"COUNTY":"LOS ANGELES","COUNTYFIPS":"06037","COUNTRY":"USA","LATITUDE":33.92803134900004,"LONGITUDE":-118.06798967199995,"NAICS_CODE":"622210","NAICS_DESC":"PSYCHIATRIC AND SUBSTANCE ABUSE HOSPITALS","SOURCE":"http://www.oshpd.ca.gov/hid/facility-listing.html","SOURCEDATE":"2019-08-02T00:00:00.000Z","VAL_METHOD":"IMAGERY/OTHER","VAL_DATE":"2015-01-16T00:00:00.000Z","WEBSITE":"http://www.dsh.ca.gov/metropolitan/default.asp","STATE_ID":"NOT AVAILABLE","ALT_NAME":"NOT AVAILABLE","ST_FIPS":"06","OWNER":"GOVERNMENT - STATE","TTL_STAFF":-999,"BEDS":1265,"TRAUMA":"NOT AVAILABLE","HELIPAD":"N"},"id":31},
{"type":"Feature","geometry":{"type":"Point","coordinates":[-89.34911,38.08485]},"properties":{"ID":"0196162274","NAME":"PINCKNEYVILLE COMMUNITY HOSPITAL","ADDRESS":"5383 STATE ROUTE 154","CITY":"PINCKNEYVILLE","STATE":"IL","ZIP":"62274","ZIP4":"NOT AVAILABLE","TELEPHONE":"(618) 357-2187","TYPE":"CRITICAL ACCESS","STATUS":"OPEN","POPULATION":-999,"COUNTY":"PERRY","COUNTYFIPS":"17145","COUNTRY":"USA","LATITUDE":38.08484600000003,"LONGITUDE":-89.34910799999994,"NAICS_CODE":"622110","NAICS_DESC":"GENERAL MEDICAL AND SURGICAL HOSPITALS","SOURCE":"https://data.illinois.gov/dataset/410idph_hospital_directory","SOURCEDATE":"2019-09-19T00:00:00.000Z","VAL_METHOD":"IMAGERY/OTHER","VAL_DATE":"2020-05-07T00:00:00.000Z","WEBSITE":"http://www.pvillehosp.org/","STATE_ID":"NOT AVAILABLE","ALT_NAME":"NOT AVAILABLE","ST_FIPS":"17","OWNER":"GOVERNMENT - LOCAL","TTL_STAFF":-999,"BEDS":17,"TRAUMA":"NOT AVAILABLE","HELIPAD":"Y"},"id":32},
{"type":"Feature","geometry":{"type":"Point","coordinates":[-81.15456,31.98543]},"properties":{"ID":"0085531419","NAME":"ST JOSEPH'S HOSPITAL - SAVANNAH","ADDRESS":"11705 MERCY BOULEVARD","CITY":"SAVANNAH","STATE":"GA","ZIP":"31419","ZIP4":"NOT AVAILABLE","TELEPHONE":"NOT AVAILABLE","TYPE":"GENERAL ACUTE CARE","STATUS":"OPEN","POPULATION":-999,"COUNTY":"CHATHAM","COUNTYFIPS":"13051","COUNTRY":"USA","LATITUDE":31.985430321000024,"LONGITUDE":-81.15455636899998,"NAICS_CODE":"622110","NAICS_DESC":"GENERAL MEDICAL AND SURGICAL HOSPITALS","SOURCE":"http://www.gamap2care.info/","SOURCEDATE":"2019-08-09T00:00:00.000Z","VAL_METHOD":"IMAGERY/OTHER","VAL_DATE":"2015-03-05T00:00:00.000Z","WEBSITE":"NOT AVAILABLE","STATE_ID":"NOT AVAILABLE","ALT_NAME":"NOT AVAILABLE","ST_FIPS":"13","OWNER":"NON-PROFIT","TTL_STAFF":-999,"BEDS":294,"TRAUMA":"NOT AVAILABLE","HELIPAD":"Y"},"id":33},
{"type":"Feature","geometry":{"type":"Point","coordinates":[-85.18024,34.25971]},"properties":{"ID":"0086630165","NAME":"KINDRED HOSPITAL ROME","ADDRESS":"320 TURNER MCCALL BOULEVARD","CITY":"ROME","STATE":"GA","ZIP":"30165","ZIP4":"NOT AVAILABLE","TELEPHONE":"NOT AVAILABLE","TYPE":"LONG TERM CARE","STATUS":"OPEN","POPULATION":45,"COUNTY":"FLOYD","COUNTYFIPS":"13115","COUNTRY":"USA","LATITUDE":34.259713445000045,"LONGITUDE":-85.18023963199994,"NAICS_CODE":"622310","NAICS_DESC":"SPECIALTY (EXCEPT PSYCHIATRIC AND SUBSTANCE ABUSE) HOSPITALS","SOURCE":"http://www.gamap2care.info/","SOURCEDATE":"2019-08-09T00:00:00.000Z","VAL_METHOD":"IMAGERY/OTHER","VAL_DATE":"2015-03-05T00:00:00.000Z","WEBSITE":"NOT AVAILABLE","STATE_ID":"NOT AVAILABLE","ALT_NAME":"NOT AVAILABLE","ST_FIPS":"13","OWNER":"NOT AVAILABLE","TTL_STAFF":-999,"BEDS":45,"TRAUMA":"NOT AVAILABLE","HELIPAD":"N"},"id":34},
{"type":"Feature","geometry":{"type":"Point","coordinates":[-84.33651,32.8863]},"properties":{"ID":"0087130286","NAME":"UPSON REGIONAL MEDICAL CENTER","ADDRESS":"801 W GORDON STREET","CITY":"THOMASTON","STATE":"GA","ZIP":"30286","ZIP4":"NOT AVAILABLE","TELEPHONE":"NOT AVAILABLE","TYPE":"GENERAL ACUTE CARE","STATUS":"OPEN","POPULATION":115,"COUNTY":"UPSON","COUNTYFIPS":"13293","COUNTRY":"USA","LATITUDE":32.886297701000046,"LONGITUDE":-84.33650698799994,"NAICS_CODE":"622110","NAICS_DESC":"GENERAL MEDICAL AND SURGICAL HOSPITALS","SOURCE":"http://www.gamap2care.info/","SOURCEDATE":"2019-08-09T00:00:00.000Z","VAL_METHOD":"IMAGERY/OTHER","VAL_DATE":"2015-03-05T00:00:00.000Z","WEBSITE":"NOT AVAILABLE","STATE_ID":"NOT AVAILABLE","ALT_NAME":"NOT AVAILABLE","ST_FIPS":"13","OWNER":"NOT AVAILABLE","TTL_STAFF":-999,"BEDS":115,"TRAUMA":"NOT AVAILABLE","HELIPAD":"N"},"id":35},
{"type":"Feature","geometry":{"type":"Point","coordinates":[-84.25605,32.06696]},"properties":{"ID":"0087531719","NAME":"PHOEBE SUMTER MEDICAL CENTER","ADDRESS":"126 HIGHWAY 280 W","CITY":"AMERICUS","STATE":"GA","ZIP":"31719","ZIP4":"NOT AVAILABLE","TELEPHONE":"(229) 924-6011","TYPE":"GENERAL ACUTE CARE","STATUS":"OPEN","POPULATION":76,"COUNTY":"SUMTER","COUNTYFIPS":"13261","COUNTRY":"USA","LATITUDE":32.06696233800005,"LONGITUDE":-84.25605019999995,"NAICS_CODE":"622110","NAICS_DESC":"GENERAL MEDICAL AND SURGICAL HOSPITALS","SOURCE":"http://www.gamap2care.info/","SOURCEDATE":"2019-08-09T00:00:00.000Z","VAL_METHOD":"IMAGERY/OTHER","VAL_DATE":"2015-03-09T00:00:00.000Z","WEBSITE":"http://www.phoebeputney.com/phoebecontentpage.aspx?nd=1479","STATE_ID":"NOT AVAILABLE","ALT_NAME":"NOT AVAILABLE","ST_FIPS":"13","OWNER":"NOT AVAILABLE","TTL_STAFF":-999,"BEDS":76,"TRAUMA":"NOT AVAILABLE","HELIPAD":"Y"},"id":36},
{"type":"Feature","geometry":{"type":"Point","coordinates":[-84.69234,32.88798]},"properties":{"ID":"0087931830","NAME":"ROOSEVELT WARM SPRINGS LTAC HOSPITAL","ADDRESS":"6135 ROOSEVELT HIGHWAY","CITY":"WARM SPRINGS","STATE":"GA","ZIP":"31830","ZIP4":"NOT AVAILABLE","TELEPHONE":"(404) 655-5011","TYPE":"LONG TERM CARE","STATUS":"OPEN","POPULATION":32,"COUNTY":"MERIWETHER","COUNTYFIPS":"13199","COUNTRY":"USA","LATITUDE":32.887980741000035,"LONGITUDE":-84.69234489999997,"NAICS_CODE":"622310","NAICS_DESC":"SPECIALTY (EXCEPT PSYCHIATRIC AND SUBSTANCE ABUSE) HOSPITALS","SOURCE":"http://www.gamap2care.info/","SOURCEDATE":"2019-08-09T00:00:00.000Z","VAL_METHOD":"IMAGERY/OTHER","VAL_DATE":"2015-03-09T00:00:00.000Z","WEBSITE":"NOT AVAILABLE","STATE_ID":"NOT AVAILABLE","ALT_NAME":"NOT AVAILABLE","ST_FIPS":"13","OWNER":"NOT AVAILABLE","TTL_STAFF":-999,"BEDS":32,"TRAUMA":"NOT AVAILABLE","HELIPAD":"N"},"id":37},
{"type":"Feature","geometry":{"type":"Point","coordinates":[-84.75775,33.38483]},"properties":{"ID":"0090030265","NAME":"SOUTHEASTERN REGIONAL MEDICAL CENTER","ADDRESS":"600 CELEBRATE LIFE PKWY","CITY":"NEWNAN","STATE":"GA","ZIP":"30265","ZIP4":"NOT AVAILABLE","TELEPHONE":"NOT AVAILABLE","TYPE":"GENERAL ACUTE CARE","STATUS":"OPEN","POPULATION":25,"COUNTY":"COWETA","COUNTYFIPS":"13077","COUNTRY":"USA","LATITUDE":33.38483464600006,"LONGITUDE":-84.75774669199996,"NAICS_CODE":"622110","NAICS_DESC":"GENERAL MEDICAL AND SURGICAL HOSPITALS","SOURCE":"http://www.gamap2care.info/","SOURCEDATE":"2019-08-09T00:00:00.000Z","VAL_METHOD":"IMAGERY/OTHER","VAL_DATE":"2015-03-09T00:00:00.000Z","WEBSITE":"http://www.cancercenter.com/southeastern/","STATE_ID":"NOT AVAILABLE","ALT_NAME":"NOT AVAILABLE","ST_FIPS":"13","OWNER":"PROPRIETARY","TTL_STAFF":-999,"BEDS":50,"TRAUMA":"NOT AVAILABLE","HELIPAD":"N"},"id":38},
{"type":"Feature","geometry":{"type":"Point","coordinates":[-65.95579,18.38044]},"properties":{"ID":"0196500984","NAME":"DOCTORS CENTER HOSPITAL SANFERNANDO DE CAROLINA","ADDRESS":"CALLE FERNANDEZ JUNCOS, EDIFICIO JESUS T. PINEIRO","CITY":"CAROLINA","STATE":"PR","ZIP":"00984","ZIP4":"NOT AVAILABLE","TELEPHONE":"(787) 621-3322","TYPE":"GENERAL ACUTE CARE","STATUS":"OPEN","POPULATION":-999,"COUNTY":"METRO","COUNTYFIPS":"72031","COUNTRY":"PRI","LATITUDE":18.38044300000007,"LONGITUDE":-65.95578999999998,"NAICS_CODE":"622110","NAICS_DESC":"GENERAL MEDICAL AND SURGICAL HOSPITALS","SOURCE":"http://www.salud.gov.pr/servicios-al-ciudadano/pages/directorio-de-hospitales-publicos-y-privados.aspx","SOURCEDATE":"2019-08-09T00:00:00.000Z","VAL_METHOD":"IMAGERY/OTHER","VAL_DATE":"2020-05-07T00:00:00.000Z","WEBSITE":"https://www.tuhospitalfamiliar.com/","STATE_ID":"NOT AVAILABLE","ALT_NAME":"NOT AVAILABLE","ST_FIPS":"72","OWNER":"NOT AVAILABLE","TTL_STAFF":-999,"BEDS":988,"TRAUMA":"NOT AVAILABLE","HELIPAD":"N"},"id":39},
{"type":"Feature","geometry":{"type":"Point","coordinates":[-87.92483,44.52271]},"properties":{"ID":"0002054311","NAME":"BROWN CTY COMMUNITY TREATMENT CENTER","ADDRESS":"3150 GERSHWIN DRIVE","CITY":"GREEN BAY","STATE":"WI","ZIP":"54311","ZIP4":"NOT AVAILABLE","TELEPHONE":"(920) 391-4700","TYPE":"PSYCHIATRIC","STATUS":"OPEN","POPULATION":16,"COUNTY":"BROWN","COUNTYFIPS":"55009","COUNTRY":"USA","LATITUDE":44.52271226100004,"LONGITUDE":-87.92482708399996,"NAICS_CODE":"622210","NAICS_DESC":"PSYCHIATRIC AND SUBSTANCE ABUSE HOSPITALS","SOURCE":"https://www.dhs.wisconsin.gov/guide/hospital.htm","SOURCEDATE":"2019-08-13T00:00:00.000Z","VAL_METHOD":"IMAGERY/OTHER","VAL_DATE":"2020-05-05T00:00:00.000Z","WEBSITE":"http://www.co.brown.wi.us/","STATE_ID":"213","ALT_NAME":"NOT AVAILABLE","ST_FIPS":"55","OWNER":"GOVERNMENT - LOCAL","TTL_STAFF":-999,"BEDS":16,"TRAUMA":"NOT AVAILABLE","HELIPAD":"N"},"id":40},
{"type":"Feature","geometry":{"type":"Point","coordinates":[-88.03727,43.03581]},"properties":{"ID":"0151253226","NAME":"WHEATON FRANCISCAN WI HEART SPINE AND ORTHO","ADDRESS":"10000 WEST BLUEMOUND ROAD","CITY":"WAUWATOSA","STATE":"WI","ZIP":"53226","ZIP4":"NOT AVAILABLE","TELEPHONE":"(414) 778-7800","TYPE":"GENERAL ACUTE CARE","STATUS":"OPEN","POPULATION":40,"COUNTY":"MILWAUKEE","COUNTYFIPS":"55079","COUNTRY":"USA","LATITUDE":43.03581215200006,"LONGITUDE":-88.03726582299998,"NAICS_CODE":"622110","NAICS_DESC":"GENERAL MEDICAL AND SURGICAL HOSPITALS","SOURCE":"https://www.dhs.wisconsin.gov/guide/hospital.htm","SOURCEDATE":"2019-08-13T00:00:00.000Z","VAL_METHOD":"IMAGERY/OTHER","VAL_DATE":"2015-03-27T00:00:00.000Z","WEBSITE":"NOT AVAILABLE","STATE_ID":"NOT AVAILABLE","ALT_NAME":"WISCONSIN HEART HOSPITAL","ST_FIPS":"55","OWNER":"NOT AVAILABLE","TTL_STAFF":-999,"BEDS":40,"TRAUMA":"NOT AVAILABLE","HELIPAD":"N"},"id":41},
{"type":"Feature","geometry":{"type":"Point","coordinates":[-66.15439,18.36766]},"properties":{"ID":"0196600956","NAME":"HOSPITAL PSIQUIATRICO DE NINOS YADOLESCENTES","ADDRESS":"AVE LAUREL 100, URB. SANTA JUANITA","CITY":"BAYAMON","STATE":"PR","ZIP":"00956","ZIP4":"NOT AVAILABLE","TELEPHONE":"(787) 786-7373","TYPE":"PSYCHIATRIC","STATUS":"OPEN","POPULATION":-999,"COUNTY":"BAYAMON","COUNTYFIPS":"72021","COUNTRY":"PRI","LATITUDE":18.36765566100007,"LONGITUDE":-66.15439125899996,"NAICS_CODE":"622210","NAICS_DESC":"CHILDREN'S HOSPITALS, PSYCHIATRIC OR SUBSTANCE ABUSE","SOURCE":"http://www.salud.gov.pr/servicios-al-ciudadano/pages/directorio-de-hospitales-publicos-y-privados.aspx","SOURCEDATE":"2019-08-09T00:00:00.000Z","VAL_METHOD":"IMAGERY/OTHER","VAL_DATE":"2020-05-07T00:00:00.000Z","WEBSITE":"NOT AVAILABLE","STATE_ID":"NOT AVAILABLE","ALT_NAME":"NOT AVAILABLE","ST_FIPS":"72","OWNER":"NOT AVAILABLE","TTL_STAFF":-999,"BEDS":-999,"TRAUMA":"NOT AVAILABLE","HELIPAD":"N"},"id":42},
{"type":"Feature","geometry":{"type":"Point","coordinates":[-92.48199,31.25219]},"properties":{"ID":"0159171301","NAME":"COMPASS BEHAVIORAL CENTER OF ALEXANDRIA","ADDRESS":"6410 MASONIC DRIVE","CITY":"ALEXANDRIA","STATE":"LA","ZIP":"71301","ZIP4":"NOT AVAILABLE","TELEPHONE":"(318) 473-0035","TYPE":"GENERAL ACUTE CARE","STATUS":"OPEN","POPULATION":-999,"COUNTY":"RAPIDES","COUNTYFIPS":"22079","COUNTRY":"USA","LATITUDE":31.25219155800005,"LONGITUDE":-92.48198781399998,"NAICS_CODE":"622110","NAICS_DESC":"GENERAL MEDICAL AND SURGICAL HOSPITALS","SOURCE":"http://new.dhh.louisiana.gov/index.cfm/directory/category/169","SOURCEDATE":"2019-08-16T00:00:00.000Z","VAL_METHOD":"IMAGERY/OTHER","VAL_DATE":"2015-05-30T00:00:00.000Z","WEBSITE":"NOT AVAILABLE","STATE_ID":"NOT AVAILABLE","ALT_NAME":"NOT AVAILABLE","ST_FIPS":"22","OWNER":"NOT AVAILABLE","TTL_STAFF":-999,"BEDS":18,"TRAUMA":"NOT AVAILABLE","HELIPAD":"N"},"id":43},
{"type":"Feature","geometry":{"type":"Point","coordinates":[-90.56525,29.70267]},"properties":{"ID":"0163570394","NAME":"OCSHNER ST. ANNE GENERAL HOSPITAL","ADDRESS":"4608 HIGHWAY 1","CITY":"RACELAND","STATE":"LA","ZIP":"70394","ZIP4":"NOT AVAILABLE","TELEPHONE":"(985) 537-8377","TYPE":"GENERAL ACUTE CARE","STATUS":"OPEN","POPULATION":38,"COUNTY":"LAFOURCHE","COUNTYFIPS":"22057","COUNTRY":"USA","LATITUDE":29.702671424000073,"LONGITUDE":-90.56525389799998,"NAICS_CODE":"622110","NAICS_DESC":"GENERAL MEDICAL AND SURGICAL HOSPITALS","SOURCE":"http://new.dhh.louisiana.gov/index.cfm/directory/category/169","SOURCEDATE":"2019-08-16T00:00:00.000Z","VAL_METHOD":"IMAGERY/OTHER","VAL_DATE":"2015-05-30T00:00:00.000Z","WEBSITE":"https://www.ochsner.org/locations/ochsner-st-anne/","STATE_ID":"NOT AVAILABLE","ALT_NAME":"NOT AVAILABLE","ST_FIPS":"22","OWNER":"NOT AVAILABLE","TTL_STAFF":-999,"BEDS":38,"TRAUMA":"NOT AVAILABLE","HELIPAD":"Y"},"id":44},
{"type":"Feature","geometry":{"type":"Point","coordinates":[-91.21066,30.83264]},"properties":{"ID":"0164970748","NAME":"FELICIANA FORENSIC FACILITY","ADDRESS":"4502 HWY 951","CITY":"JACKSON","STATE":"LA","ZIP":"70748","ZIP4":"NOT AVAILABLE","TELEPHONE":"(225) 634-0216","TYPE":"GENERAL ACUTE CARE","STATUS":"OPEN","POPULATION":-999,"COUNTY":"EAST FELICIANA","COUNTYFIPS":"22037","COUNTRY":"USA","LATITUDE":30.83263568800004,"LONGITUDE":-91.21066048799997,"NAICS_CODE":"622110","NAICS_DESC":"GENERAL MEDICAL AND SURGICAL HOSPITALS","SOURCE":"http://new.dhh.louisiana.gov/index.cfm/directory/category/169","SOURCEDATE":"2019-08-16T00:00:00.000Z","VAL_METHOD":"IMAGERY/OTHER","VAL_DATE":"2016-02-25T00:00:00.000Z","WEBSITE":"http://new.dhh.louisiana.gov/index.cfm/directory/detail/219","STATE_ID":"NOT AVAILABLE","ALT_NAME":"NOT AVAILABLE","ST_FIPS":"22","OWNER":"GOVERNMENT - STATE","TTL_STAFF":-999,"BEDS":-999,"TRAUMA":"NOT AVAILABLE","HELIPAD":"N"},"id":45},
{"type":"Feature","geometry":{"type":"Point","coordinates":[-90.03069,29.86598]},"properties":{"ID":"0160970056","NAME":"UNITED MEDICAL HEALTHWEST-NEW ORLEANS","ADDRESS":"3201 WALL BOULEVARD","CITY":"GRETNA","STATE":"LA","ZIP":"70056","ZIP4":"NOT AVAILABLE","TELEPHONE":"(504) 433-5551","TYPE":"REHABILITATION","STATUS":"OPEN","POPULATION":-999,"COUNTY":"JEFFERSON","COUNTYFIPS":"22051","COUNTRY":"USA","LATITUDE":29.865979474000028,"LONGITUDE":-90.03069184999998,"NAICS_CODE":"622310","NAICS_DESC":"REHABILITATION HOSPITALS (EXCEPT ALCOHOLISM, DRUG ADDICTION)","SOURCE":"http://new.dhh.louisiana.gov/index.cfm/directory/category/169","SOURCEDATE":"2019-08-16T00:00:00.000Z","VAL_METHOD":"IMAGERY/OTHER","VAL_DATE":"2015-05-29T00:00:00.000Z","WEBSITE":"http://umrhospital.com/locations/new-orleans/","STATE_ID":"NOT AVAILABLE","ALT_NAME":"NOT AVAILABLE","ST_FIPS":"22","OWNER":"PROPRIETARY","TTL_STAFF":-999,"BEDS":14,"TRAUMA":"NOT AVAILABLE","HELIPAD":"N"},"id":46},
{"type":"Feature","geometry":{"type":"Point","coordinates":[-88.81775,43.83438]},"properties":{"ID":"0152354971","NAME":"RIPON MEDICAL CENTER","ADDRESS":"845 PARKSIDE ST","CITY":"RIPON","STATE":"WI","ZIP":"54971","ZIP4":"NOT AVAILABLE","TELEPHONE":"(920) 748-3101","TYPE":"CRITICAL ACCESS","STATUS":"OPEN","POPULATION":18,"COUNTY":"FOND DU LAC","COUNTYFIPS":"55039","COUNTRY":"USA","LATITUDE":43.83437609200007,"LONGITUDE":-88.81775152899996,"NAICS_CODE":"622110","NAICS_DESC":"GENERAL MEDICAL AND SURGICAL HOSPITALS","SOURCE":"https://www.dhs.wisconsin.gov/guide/hospital.htm","SOURCEDATE":"2019-08-13T00:00:00.000Z","VAL_METHOD":"IMAGERY/OTHER","VAL_DATE":"2015-03-27T00:00:00.000Z","WEBSITE":"http://www.agnesian.com/locations/hospitals/ripon-medical-center","STATE_ID":"1024","ALT_NAME":"NOT AVAILABLE","ST_FIPS":"55","OWNER":"NOT AVAILABLE","TTL_STAFF":-999,"BEDS":18,"TRAUMA":"LEVEL IV","HELIPAD":"Y"},"id":48},
{"type":"Feature","geometry":{"type":"Point","coordinates":[-71.43315,41.83214]},"properties":{"ID":"0013402908","NAME":"VA MEDICAL CENTER - PROVIDENCE","ADDRESS":"830 CHALKSTONE AVE","CITY":"PROVIDENCE","STATE":"RI","ZIP":"02908","ZIP4":"NOT AVAILABLE","TELEPHONE":"NOT AVAILABLE","TYPE":"GENERAL ACUTE CARE","STATUS":"OPEN","POPULATION":-999,"COUNTY":"PROVIDENCE","COUNTYFIPS":"44007","COUNTRY":"USA","LATITUDE":41.83213908400006,"LONGITUDE":-71.43314954499994,"NAICS_CODE":"622110","NAICS_DESC":"GENERAL MEDICAL AND SURGICAL HOSPITALS","SOURCE":"https://www.va.gov/directory/guide/allstate.asp","SOURCEDATE":"2019-09-26T00:00:00.000Z","VAL_METHOD":"IMAGERY/OTHER","VAL_DATE":"2015-05-26T00:00:00.000Z","WEBSITE":"http://www.providence.va.gov/","STATE_ID":"NOT AVAILABLE","ALT_NAME":"NOT AVAILABLE","ST_FIPS":"44","OWNER":"GOVERNMENT - FEDERAL","TTL_STAFF":-999,"BEDS":-999,"TRAUMA":"NOT AVAILABLE","HELIPAD":"N"},"id":49},
{"type":"Feature","geometry":{"type":"Point","coordinates":[-90.49332,44.00308]},"properties":{"ID":"0015954660","NAME":"TOMAH VA MEDICAL CENTER","ADDRESS":"500 E VETERANS ST","CITY":"TOMAH","STATE":"WI","ZIP":"54660","ZIP4":"NOT AVAILABLE","TELEPHONE":"(608) 372-3971","TYPE":"MILITARY","STATUS":"OPEN","POPULATION":-999,"COUNTY":"MONROE","COUNTYFIPS":"55081","COUNTRY":"USA","LATITUDE":44.00308068000004,"LONGITUDE":-90.49331901399995,"NAICS_CODE":"622110","NAICS_DESC":"GENERAL MEDICAL AND SURGICAL HOSPITALS","SOURCE":"https://www.va.gov/directory/guide/allstate.asp","SOURCEDATE":"2019-09-26T00:00:00.000Z","VAL_METHOD":"IMAGERY/OTHER","VAL_DATE":"2015-05-29T00:00:00.000Z","WEBSITE":"http://www.tomah.va.gov/","STATE_ID":"NOT AVAILABLE","ALT_NAME":"NOT AVAILABLE","ST_FIPS":"55","OWNER":"GOVERNMENT - FEDERAL","TTL_STAFF":-999,"BEDS":-999,"TRAUMA":"NOT AVAILABLE","HELIPAD":"Y"},"id":50},
{"type":"Feature","geometry":{"type":"Point","coordinates":[-89.68183,45.17563]},"properties":{"ID":"0005854452","NAME":"ASCENSION GOOD SAMARITAN HLTH CTR","ADDRESS":"601 S CENTER AVE","CITY":"MERRILL","STATE":"WI","ZIP":"54452","ZIP4":"NOT AVAILABLE","TELEPHONE":"(715) 536-5511","TYPE":"GENERAL ACUTE CARE","STATUS":"OPEN","POPULATION":25,"COUNTY":"LINCOLN","COUNTYFIPS":"55069","COUNTRY":"USA","LATITUDE":45.17563253700007,"LONGITUDE":-89.68183127599997,"NAICS_CODE":"622110","NAICS_DESC":"GENERAL MEDICAL AND SURGICAL HOSPITALS","SOURCE":"https://www.dhs.wisconsin.gov/guide/hospital.htm","SOURCEDATE":"2019-08-13T00:00:00.000Z","VAL_METHOD":"IMAGERY","VAL_DATE":"2020-05-05T00:00:00.000Z","WEBSITE":"http://www.ministryhealth.org","STATE_ID":"1043","ALT_NAME":"NOT AVAILABLE","ST_FIPS":"55","OWNER":"NON-PROFIT","TTL_STAFF":-999,"BEDS":25,"TRAUMA":"LEVEL IV","HELIPAD":"Y"},"id":51},
{"type":"Feature","geometry":{"type":"Point","coordinates":[-122.41197,40.5866]},"properties":{"ID":"0058796001","NAME":"RESTPADD PSYCHIATRIC HEALTH FACILITY","ADDRESS":"2750 EUREKA WAY","CITY":"REDDING","STATE":"CA","ZIP":"96001","ZIP4":"NOT AVAILABLE","TELEPHONE":"(530) 262-6700","TYPE":"PSYCHIATRIC","STATUS":"OPEN","POPULATION":16,"COUNTY":"SHASTA","COUNTYFIPS":"06089","COUNTRY":"USA","LATITUDE":40.58659539200005,"LONGITUDE":-122.41197410699999,"NAICS_CODE":"622210","NAICS_DESC":"PSYCHIATRIC AND SUBSTANCE ABUSE HOSPITALS","SOURCE":"http://www.oshpd.ca.gov/hid/facility-listing.html","SOURCEDATE":"2019-08-02T00:00:00.000Z","VAL_METHOD":"IMAGERY/OTHER","VAL_DATE":"2016-02-11T00:00:00.000Z","WEBSITE":"http://www.restpadd.com/","STATE_ID":"NOT AVAILABLE","ALT_NAME":"NOT AVAILABLE","ST_FIPS":"06","OWNER":"PROPRIETARY","TTL_STAFF":-999,"BEDS":16,"TRAUMA":"NOT AVAILABLE","HELIPAD":"N"},"id":52},
{"type":"Feature","geometry":{"type":"Point","coordinates":[-120.45219,34.63537]},"properties":{"ID":"0059093436","NAME":"THE CHAMPION CENTER","ADDRESS":"303 SOUTH C STREET","CITY":"LOMPOC","STATE":"CA","ZIP":"93436","ZIP4":"NOT AVAILABLE","TELEPHONE":"(844) 394-3767","TYPE":"REHABILITATION","STATUS":"OPEN","POPULATION":34,"COUNTY":"SANTA BARBARA","COUNTYFIPS":"06083","COUNTRY":"USA","LATITUDE":34.63537160900006,"LONGITUDE":-120.45218832499995,"NAICS_CODE":"622310","NAICS_DESC":"REHABILITATION HOSPITALS (EXCEPT ALCOHOLISM, DRUG ADDICTION)","SOURCE":"http://www.oshpd.ca.gov/hid/facility-listing.html","SOURCEDATE":"2019-08-02T00:00:00.000Z","VAL_METHOD":"IMAGERY/OTHER","VAL_DATE":"2016-02-17T00:00:00.000Z","WEBSITE":"https://championrecovery.com/","STATE_ID":"NOT AVAILABLE","ALT_NAME":"NOT AVAILABLE","ST_FIPS":"06","OWNER":"PROPRIETARY","TTL_STAFF":-999,"BEDS":34,"TRAUMA":"NOT AVAILABLE","HELIPAD":"N"},"id":53},
{"type":"Feature","geometry":{"type":"Point","coordinates":[-84.6607,32.08617]},"properties":{"ID":"0023831825","NAME":"STEWART WEBSTER HOSPITAL","ADDRESS":"580 ALSTON STREET","CITY":"RICHLAND","STATE":"GA","ZIP":"31825","ZIP4":"NOT AVAILABLE","TELEPHONE":"(229) 887-3366","TYPE":"CRITICAL ACCESS","STATUS":"CLOSED","POPULATION":25,"COUNTY":"STEWART","COUNTYFIPS":"13259","COUNTRY":"USA","LATITUDE":32.08616827000003,"LONGITUDE":-84.66069977399997,"NAICS_CODE":"622310","NAICS_DESC":"HOSPITALS, SPECIALTY (EXCEPT PSYCHIATRIC, SUBSTANCE ABUSE)","SOURCE":"http://www.gamap2care.info/locator.html#","SOURCEDATE":"2016-03-08T00:00:00.000Z","VAL_METHOD":"IMAGERY/OTHER","VAL_DATE":"2016-03-08T00:00:00.000Z","WEBSITE":"http://www.stewartcountyga.gov/stewartwebsterhospital.htm","STATE_ID":"NOT AVAILABLE","ALT_NAME":"NOT AVAILABLE","ST_FIPS":"13","OWNER":"GOVERNMENT - DISTRICT/AUTHORITY","TTL_STAFF":-999,"BEDS":25,"TRAUMA":"NOT AVAILABLE","HELIPAD":"N"},"id":54},
{"type":"Feature","geometry":{"type":"Point","coordinates":[-117.6086,34.03208]},"properties":{"ID":"0021891761","NAME":"KAISER FND HOSP ONTARIO MEDICAL CENTER CAMPUS","ADDRESS":"2295 S. VINEYARD AVENUE","CITY":"ONTARIO","STATE":"CA","ZIP":"91761","ZIP4":"NOT AVAILABLE","TELEPHONE":"NOT AVAILABLE","TYPE":"GENERAL ACUTE CARE","STATUS":"OPEN","POPULATION":176,"COUNTY":"SAN BERNARDINO","COUNTYFIPS":"06071","COUNTRY":"USA","LATITUDE":34.03207956000006,"LONGITUDE":-117.60859932999995,"NAICS_CODE":"622110","NAICS_DESC":"GENERAL MEDICAL AND SURGICAL HOSPITALS","SOURCE":"http://www.oshpd.ca.gov/hid/facility-listing.html","SOURCEDATE":"2019-08-02T00:00:00.000Z","VAL_METHOD":"IMAGERY","VAL_DATE":"2014-02-10T00:00:00.000Z","WEBSITE":"http://www.kaiserpermanente.org","STATE_ID":"NOT AVAILABLE","ALT_NAME":"NOT AVAILABLE","ST_FIPS":"06","OWNER":"NON-PROFIT","TTL_STAFF":-999,"BEDS":176,"TRAUMA":"NOT AVAILABLE","HELIPAD":"N"},"id":55},
{"type":"Feature","geometry":{"type":"Point","coordinates":[-117.25164,34.04731]},"properties":{"ID":"0025692354","NAME":"LOMA LINDA UNIV. MED. CENTER EAST CAMPUS HOSPITAL","ADDRESS":"25333 BARTON ROAD","CITY":"LOMA LINDA","STATE":"CA","ZIP":"92354","ZIP4":"NOT AVAILABLE","TELEPHONE":"NOT AVAILABLE","TYPE":"GENERAL ACUTE CARE","STATUS":"OPEN","POPULATION":134,"COUNTY":"SAN BERNARDINO","COUNTYFIPS":"06071","COUNTRY":"USA","LATITUDE":34.04730563500004,"LONGITUDE":-117.25163677599994,"NAICS_CODE":"622110","NAICS_DESC":"GENERAL MEDICAL AND SURGICAL HOSPITALS","SOURCE":"http://www.oshpd.ca.gov/hid/facility-listing.html","SOURCEDATE":"2019-08-02T00:00:00.000Z","VAL_METHOD":"IMAGERY","VAL_DATE":"2014-02-10T00:00:00.000Z","WEBSITE":"http://www.llumc.edu","STATE_ID":"NOT AVAILABLE","ALT_NAME":"NOT AVAILABLE","ST_FIPS":"06","OWNER":"NON-PROFIT","TTL_STAFF":-999,"BEDS":134,"TRAUMA":"NOT AVAILABLE","HELIPAD":"N"},"id":56},
{"type":"Feature","geometry":{"type":"Point","coordinates":[-117.27702,34.13467]},"properties":{"ID":"0044792404","NAME":"ST. BERNARDINE MEDICAL CENTER","ADDRESS":"2101 NORTH WATERMAN AVENUE","CITY":"SAN BERNARDINO","STATE":"CA","ZIP":"92404","ZIP4":"NOT AVAILABLE","TELEPHONE":"NOT AVAILABLE","TYPE":"GENERAL ACUTE CARE","STATUS":"OPEN","POPULATION":342,"COUNTY":"SAN BERNARDINO","COUNTYFIPS":"06071","COUNTRY":"USA","LATITUDE":34.134672357000056,"LONGITUDE":-117.27701997499997,"NAICS_CODE":"622110","NAICS_DESC":"GENERAL MEDICAL AND SURGICAL HOSPITALS","SOURCE":"http://www.oshpd.ca.gov/hid/facility-listing.html","SOURCEDATE":"2019-08-02T00:00:00.000Z","VAL_METHOD":"IMAGERY","VAL_DATE":"2014-02-10T00:00:00.000Z","WEBSITE":"http://www.stbernardinemedicalcenter.com","STATE_ID":"NOT AVAILABLE","ALT_NAME":"NOT AVAILABLE","ST_FIPS":"06","OWNER":"NON-PROFIT","TTL_STAFF":-999,"BEDS":342,"TRAUMA":"NOT AVAILABLE","HELIPAD":"N"},"id":57},
{"type":"Feature","geometry":{"type":"Point","coordinates":[-117.09516,32.79156]},"properties":{"ID":"0020092120","NAME":"KAISER FND HOSP - SAN DIEGO","ADDRESS":"4647 ZION AVENUE","CITY":"SAN DIEGO","STATE":"CA","ZIP":"92120","ZIP4":"NOT AVAILABLE","TELEPHONE":"NOT AVAILABLE","TYPE":"GENERAL ACUTE CARE","STATUS":"OPEN","POPULATION":414,"COUNTY":"SAN DIEGO","COUNTYFIPS":"06073","COUNTRY":"USA","LATITUDE":32.79156257500006,"LONGITUDE":-117.09515954899996,"NAICS_CODE":"622110","NAICS_DESC":"GENERAL MEDICAL AND SURGICAL HOSPITALS","SOURCE":"http://www.oshpd.ca.gov/hid/facility-listing.html","SOURCEDATE":"2019-08-02T00:00:00.000Z","VAL_METHOD":"IMAGERY/OTHER","VAL_DATE":"2014-02-10T00:00:00.000Z","WEBSITE":"http://www.kaiserpermanente.org","STATE_ID":"NOT AVAILABLE","ALT_NAME":"NOT AVAILABLE","ST_FIPS":"06","OWNER":"NON-PROFIT","TTL_STAFF":-999,"BEDS":414,"TRAUMA":"NOT AVAILABLE","HELIPAD":"N"},"id":58},
{"type":"Feature","geometry":{"type":"Point","coordinates":[-117.24287,32.89686]},"properties":{"ID":"0040992037","NAME":"SCRIPPS GREEN HOSPITAL","ADDRESS":"10666 NORTH TORREY PINES ROAD","CITY":"LA JOLLA","STATE":"CA","ZIP":"92037","ZIP4":"NOT AVAILABLE","TELEPHONE":"NOT AVAILABLE","TYPE":"GENERAL ACUTE CARE","STATUS":"OPEN","POPULATION":173,"COUNTY":"SAN DIEGO","COUNTYFIPS":"06073","COUNTRY":"USA","LATITUDE":32.89685890100003,"LONGITUDE":-117.24287106999998,"NAICS_CODE":"622110","NAICS_DESC":"GENERAL MEDICAL AND SURGICAL HOSPITALS","SOURCE":"http://www.oshpd.ca.gov/hid/facility-listing.html","SOURCEDATE":"2019-08-02T00:00:00.000Z","VAL_METHOD":"IMAGERY","VAL_DATE":"2014-02-10T00:00:00.000Z","WEBSITE":"http://www.scrippshealth.org","STATE_ID":"NOT AVAILABLE","ALT_NAME":"NOT AVAILABLE","ST_FIPS":"06","OWNER":"NON-PROFIT","TTL_STAFF":-999,"BEDS":173,"TRAUMA":"NOT AVAILABLE","HELIPAD":"N"},"id":59},
{"type":"Feature","geometry":{"type":"Point","coordinates":[-117.28418,33.03734]},"properties":{"ID":"0041092024","NAME":"SCRIPPS MEMORIAL HOSPITAL - ENCINITAS","ADDRESS":"354 SANTA FE DRIVE","CITY":"ENCINITAS","STATE":"CA","ZIP":"92024","ZIP4":"NOT AVAILABLE","TELEPHONE":"NOT AVAILABLE","TYPE":"GENERAL ACUTE CARE","STATUS":"OPEN","POPULATION":194,"COUNTY":"SAN DIEGO","COUNTYFIPS":"06073","COUNTRY":"USA","LATITUDE":33.037344776000054,"LONGITUDE":-117.28418338299997,"NAICS_CODE":"622110","NAICS_DESC":"GENERAL MEDICAL AND SURGICAL HOSPITALS","SOURCE":"http://www.oshpd.ca.gov/hid/facility-listing.html","SOURCEDATE":"2019-08-02T00:00:00.000Z","VAL_METHOD":"IMAGERY","VAL_DATE":"2014-02-10T00:00:00.000Z","WEBSITE":"http://www.scripps.org","STATE_ID":"NOT AVAILABLE","ALT_NAME":"NOT AVAILABLE","ST_FIPS":"06","OWNER":"NON-PROFIT","TTL_STAFF":-999,"BEDS":194,"TRAUMA":"NOT AVAILABLE","HELIPAD":"Y"},"id":60},
{"type":"Feature","geometry":{"type":"Point","coordinates":[-117.15498,32.7983]},"properties":{"ID":"0042292123","NAME":"SHARP MARY BIRCH HOSPITAL FOR WOMEN AND NEWBORNS","ADDRESS":"3003 HEALTH CENTER DRIVE","CITY":"SAN DIEGO","STATE":"CA","ZIP":"92123","ZIP4":"NOT AVAILABLE","TELEPHONE":"NOT AVAILABLE","TYPE":"WOMEN","STATUS":"OPEN","POPULATION":206,"COUNTY":"SAN DIEGO","COUNTYFIPS":"06073","COUNTRY":"USA","LATITUDE":32.79829577800007,"LONGITUDE":-117.15497781899995,"NAICS_CODE":"622110","NAICS_DESC":"GENERAL MEDICAL AND SURGICAL HOSPITALS","SOURCE":"http://www.oshpd.ca.gov/hid/facility-listing.html","SOURCEDATE":"2019-08-02T00:00:00.000Z","VAL_METHOD":"IMAGERY/OTHER","VAL_DATE":"2014-02-10T00:00:00.000Z","WEBSITE":"http://www.sharp.com","STATE_ID":"NOT AVAILABLE","ALT_NAME":"NOT AVAILABLE","ST_FIPS":"06","OWNER":"NON-PROFIT","TTL_STAFF":-999,"BEDS":206,"TRAUMA":"NOT AVAILABLE","HELIPAD":"Y"},"id":61},
{"type":"Feature","geometry":{"type":"Point","coordinates":[-117.16573,32.75477]},"properties":{"ID":"0051092103","NAME":"UC SAN DIEGO HEALTH HILLCREST - HILLCREST MEDICAL CENTER","ADDRESS":"200 WEST ARBOR DRIVE","CITY":"SAN DIEGO","STATE":"CA","ZIP":"92103","ZIP4":"NOT AVAILABLE","TELEPHONE":"NOT AVAILABLE","TYPE":"GENERAL ACUTE CARE","STATUS":"OPEN","POPULATION":390,"COUNTY":"SAN DIEGO","COUNTYFIPS":"06073","COUNTRY":"USA","LATITUDE":32.754770233000045,"LONGITUDE":-117.16573138399997,"NAICS_CODE":"622110","NAICS_DESC":"GENERAL MEDICAL AND SURGICAL HOSPITALS","SOURCE":"http://www.oshpd.ca.gov/hid/facility-listing.html","SOURCEDATE":"2019-08-02T00:00:00.000Z","VAL_METHOD":"IMAGERY","VAL_DATE":"2014-02-10T00:00:00.000Z","WEBSITE":"https://health.ucsd.edu/locations/pages/hillcrest.aspx","STATE_ID":"NOT AVAILABLE","ALT_NAME":"UNIVERSITY OF CALIF-SAN DIEGO MEDICAL CENTER","ST_FIPS":"06","OWNER":"NON-PROFIT","TTL_STAFF":-999,"BEDS":390,"TRAUMA":"LEVEL I","HELIPAD":"Y"},"id":62},
{"type":"Feature","geometry":{"type":"Point","coordinates":[-122.45603,37.78651]},"properties":{"ID":"0004894118","NAME":"CALIFORNIA PACIFIC MED CTR-CALIFORNIA WEST","ADDRESS":"3700 CALIFORNIA STREET","CITY":"SAN FRANCISCO","STATE":"CA","ZIP":"94118","ZIP4":"NOT AVAILABLE","TELEPHONE":"NOT AVAILABLE","TYPE":"GENERAL ACUTE CARE","STATUS":"OPEN","POPULATION":299,"COUNTY":"SAN FRANCISCO","COUNTYFIPS":"06075","COUNTRY":"USA","LATITUDE":37.78650919700004,"LONGITUDE":-122.45603063299995,"NAICS_CODE":"622110","NAICS_DESC":"GENERAL MEDICAL AND SURGICAL HOSPITALS","SOURCE":"http://www.oshpd.ca.gov/hid/facility-listing.html","SOURCEDATE":"2019-08-02T00:00:00.000Z","VAL_METHOD":"IMAGERY/OTHER","VAL_DATE":"2014-02-10T00:00:00.000Z","WEBSITE":"http://www.cpmc.org","STATE_ID":"NOT AVAILABLE","ALT_NAME":"NOT AVAILABLE","ST_FIPS":"06","OWNER":"NON-PROFIT","TTL_STAFF":-999,"BEDS":299,"TRAUMA":"NOT AVAILABLE","HELIPAD":"N"},"id":63},
{"type":"Feature","geometry":{"type":"Point","coordinates":[-122.43129,37.7907]},"properties":{"ID":"0005094115","NAME":"CALIFORNIA PACIFIC MED CTR-PACIFIC CAMPUS","ADDRESS":"2333 BUCHANAN STREET","CITY":"SAN FRANCISCO","STATE":"CA","ZIP":"94115","ZIP4":"NOT AVAILABLE","TELEPHONE":"NOT AVAILABLE","TYPE":"GENERAL ACUTE CARE","STATUS":"OPEN","POPULATION":309,"COUNTY":"SAN FRANCISCO","COUNTYFIPS":"06075","COUNTRY":"USA","LATITUDE":37.79070453800006,"LONGITUDE":-122.43129453299997,"NAICS_CODE":"622110","NAICS_DESC":"GENERAL MEDICAL AND SURGICAL HOSPITALS","SOURCE":"http://www.oshpd.ca.gov/hid/facility-listing.html","SOURCEDATE":"2019-08-02T00:00:00.000Z","VAL_METHOD":"IMAGERY/OTHER","VAL_DATE":"2014-02-10T00:00:00.000Z","WEBSITE":"http://www.cpmc.org","STATE_ID":"NOT AVAILABLE","ALT_NAME":"NOT AVAILABLE","ST_FIPS":"06","OWNER":"NON-PROFIT","TTL_STAFF":-999,"BEDS":309,"TRAUMA":"NOT AVAILABLE","HELIPAD":"N"},"id":64},
{"type":"Feature","geometry":{"type":"Point","coordinates":[-122.45375,37.77409]},"properties":{"ID":"0046594117","NAME":"ST. MARY'S MEDICAL CENTER, SAN FRANCISCO","ADDRESS":"450 STANYAN STREET","CITY":"SAN FRANCISCO","STATE":"CA","ZIP":"94117","ZIP4":"NOT AVAILABLE","TELEPHONE":"NOT AVAILABLE","TYPE":"GENERAL ACUTE CARE","STATUS":"OPEN","POPULATION":403,"COUNTY":"SAN FRANCISCO","COUNTYFIPS":"06075","COUNTRY":"USA","LATITUDE":37.77408876000004,"LONGITUDE":-122.45375164199999,"NAICS_CODE":"622110","NAICS_DESC":"GENERAL MEDICAL AND SURGICAL HOSPITALS","SOURCE":"http://www.oshpd.ca.gov/hid/facility-listing.html","SOURCEDATE":"2019-08-02T00:00:00.000Z","VAL_METHOD":"IMAGERY/OTHER","VAL_DATE":"2014-02-10T00:00:00.000Z","WEBSITE":"http://www.stmarysmedicalcenter.org","STATE_ID":"NOT AVAILABLE","ALT_NAME":"NOT AVAILABLE","ST_FIPS":"06","OWNER":"NON-PROFIT","TTL_STAFF":-999,"BEDS":403,"TRAUMA":"NOT AVAILABLE","HELIPAD":"N"},"id":65},
{"type":"Feature","geometry":{"type":"Point","coordinates":[-122.72706,38.47179]},"properties":{"ID":"0020595403","NAME":"KAISER FND HOSP - SANTA ROSA","ADDRESS":"401 BICENTENNIAL WAY","CITY":"SANTA ROSA","STATE":"CA","ZIP":"95403","ZIP4":"NOT AVAILABLE","TELEPHONE":"NOT AVAILABLE","TYPE":"GENERAL ACUTE CARE","STATUS":"OPEN","POPULATION":173,"COUNTY":"SONOMA","COUNTYFIPS":"06097","COUNTRY":"USA","LATITUDE":38.47179300600004,"LONGITUDE":-122.72706435999999,"NAICS_CODE":"622110","NAICS_DESC":"GENERAL MEDICAL AND SURGICAL HOSPITALS","SOURCE":"http://www.oshpd.ca.gov/hid/facility-listing.html","SOURCEDATE":"2019-08-02T00:00:00.000Z","VAL_METHOD":"IMAGERY","VAL_DATE":"2014-02-10T00:00:00.000Z","WEBSITE":"http://www.kaiserpermanente.org","STATE_ID":"NOT AVAILABLE","ALT_NAME":"NOT AVAILABLE","ST_FIPS":"06","OWNER":"NON-PROFIT","TTL_STAFF":-999,"BEDS":173,"TRAUMA":"NOT AVAILABLE","HELIPAD":"N"},"id":66},
{"type":"Feature","geometry":{"type":"Point","coordinates":[-122.24838,38.1269]},"properties":{"ID":"0019594590","NAME":"KAISER FND HOSP - REHABILITATION CENTER VALLEJO","ADDRESS":"975 SERENO DRIVE","CITY":"VALLEJO","STATE":"CA","ZIP":"94590","ZIP4":"NOT AVAILABLE","TELEPHONE":"NOT AVAILABLE","TYPE":"GENERAL ACUTE CARE","STATUS":"OPEN","POPULATION":248,"COUNTY":"SOLANO","COUNTYFIPS":"06095","COUNTRY":"USA","LATITUDE":38.126902080000036,"LONGITUDE":-122.24837730399997,"NAICS_CODE":"622110","NAICS_DESC":"GENERAL MEDICAL AND SURGICAL HOSPITALS","SOURCE":"http://www.oshpd.ca.gov/hid/facility-listing.html","SOURCEDATE":"2019-08-02T00:00:00.000Z","VAL_METHOD":"IMAGERY/OTHER","VAL_DATE":"2014-02-10T00:00:00.000Z","WEBSITE":"http://www.kaiserpermanente.org","STATE_ID":"NOT AVAILABLE","ALT_NAME":"NOT AVAILABLE","ST_FIPS":"06","OWNER":"NON-PROFIT","TTL_STAFF":-999,"BEDS":248,"TRAUMA":"NOT AVAILABLE","HELIPAD":"N"},"id":67},
{"type":"Feature","geometry":{"type":"Point","coordinates":[-121.79215,38.66393]},"properties":{"ID":"0053195695","NAME":"WOODLAND MEMORIAL HOSPITAL","ADDRESS":"1325 COTTONWOOD STREET","CITY":"WOODLAND","STATE":"CA","ZIP":"95695","ZIP4":"NOT AVAILABLE","TELEPHONE":"NOT AVAILABLE","TYPE":"GENERAL ACUTE CARE","STATUS":"OPEN","POPULATION":108,"COUNTY":"YOLO","COUNTYFIPS":"06113","COUNTRY":"USA","LATITUDE":38.66392502400004,"LONGITUDE":-121.79214524899999,"NAICS_CODE":"622110","NAICS_DESC":"GENERAL MEDICAL AND SURGICAL HOSPITALS","SOURCE":"http://www.oshpd.ca.gov/hid/facility-listing.html","SOURCEDATE":"2019-08-02T00:00:00.000Z","VAL_METHOD":"IMAGERY/OTHER","VAL_DATE":"2014-02-10T00:00:00.000Z","WEBSITE":"http://www.woodlandhealthcare.org","STATE_ID":"NOT AVAILABLE","ALT_NAME":"NOT AVAILABLE","ST_FIPS":"06","OWNER":"NON-PROFIT","TTL_STAFF":-999,"BEDS":108,"TRAUMA":"NOT AVAILABLE","HELIPAD":"N"},"id":68},
{"type":"Feature","geometry":{"type":"Point","coordinates":[-122.264,37.82014]},"properties":{"ID":"0001294609","NAME":"ALTA BATES SUMMIT MED CTR-SUMMIT CAMPUS-SUMMIT","ADDRESS":"3100 SUMMIT STREET","CITY":"OAKLAND","STATE":"CA","ZIP":"94609","ZIP4":"NOT AVAILABLE","TELEPHONE":"NOT AVAILABLE","TYPE":"GENERAL ACUTE CARE","STATUS":"OPEN","POPULATION":75,"COUNTY":"ALAMEDA","COUNTYFIPS":"06001","COUNTRY":"USA","LATITUDE":37.82013961100006,"LONGITUDE":-122.26400414999995,"NAICS_CODE":"622110","NAICS_DESC":"GENERAL MEDICAL AND SURGICAL HOSPITALS","SOURCE":"http://www.oshpd.ca.gov/hid/facility-listing.html","SOURCEDATE":"2019-08-02T00:00:00.000Z","VAL_METHOD":"IMAGERY/OTHER","VAL_DATE":"2014-02-10T00:00:00.000Z","WEBSITE":"http://www.altabatessummit.com","STATE_ID":"NOT AVAILABLE","ALT_NAME":"NOT AVAILABLE","ST_FIPS":"06","OWNER":"NON-PROFIT","TTL_STAFF":-999,"BEDS":75,"TRAUMA":"NOT AVAILABLE","HELIPAD":"N"},"id":69},
{"type":"Feature","geometry":{"type":"Point","coordinates":[-122.14349,37.71229]},"properties":{"ID":"0039794578","NAME":"SAN LEANDRO HOSPITAL","ADDRESS":"13855 EAST 14TH STREET","CITY":"SAN LEANDRO","STATE":"CA","ZIP":"94578","ZIP4":"NOT AVAILABLE","TELEPHONE":"NOT AVAILABLE","TYPE":"GENERAL ACUTE CARE","STATUS":"OPEN","POPULATION":93,"COUNTY":"ALAMEDA","COUNTYFIPS":"06001","COUNTRY":"USA","LATITUDE":37.712288347000026,"LONGITUDE":-122.14349368899997,"NAICS_CODE":"622110","NAICS_DESC":"GENERAL MEDICAL AND SURGICAL HOSPITALS","SOURCE":"http://www.oshpd.ca.gov/hid/facility-listing.html","SOURCEDATE":"2019-08-02T00:00:00.000Z","VAL_METHOD":"IMAGERY/OTHER","VAL_DATE":"2014-02-10T00:00:00.000Z","WEBSITE":"http://edenmedcenter.org","STATE_ID":"NOT AVAILABLE","ALT_NAME":"NOT AVAILABLE","ST_FIPS":"06","OWNER":"NON-PROFIT","TTL_STAFF":-999,"BEDS":93,"TRAUMA":"NOT AVAILABLE","HELIPAD":"N"},"id":70},
{"type":"Feature","geometry":{"type":"Point","coordinates":[-122.08791,37.63344]},"properties":{"ID":"0046694545","NAME":"ST. ROSE HOSPITAL","ADDRESS":"27200 CALAROGA AVENUE","CITY":"HAYWARD","STATE":"CA","ZIP":"94545","ZIP4":"NOT AVAILABLE","TELEPHONE":"NOT AVAILABLE","TYPE":"GENERAL ACUTE CARE","STATUS":"OPEN","POPULATION":217,"COUNTY":"ALAMEDA","COUNTYFIPS":"06001","COUNTRY":"USA","LATITUDE":37.633441993000076,"LONGITUDE":-122.08791253399994,"NAICS_CODE":"622110","NAICS_DESC":"GENERAL MEDICAL AND SURGICAL HOSPITALS","SOURCE":"http://www.oshpd.ca.gov/hid/facility-listing.html","SOURCEDATE":"2019-08-02T00:00:00.000Z","VAL_METHOD":"IMAGERY","VAL_DATE":"2014-02-10T00:00:00.000Z","WEBSITE":"http://www.srhca.org","STATE_ID":"NOT AVAILABLE","ALT_NAME":"NOT AVAILABLE","ST_FIPS":"06","OWNER":"NON-PROFIT","TTL_STAFF":-999,"BEDS":217,"TRAUMA":"NOT AVAILABLE","HELIPAD":"N"},"id":71},
{"type":"Feature","geometry":{"type":"Point","coordinates":[-121.29107,37.9766]},"properties":{"ID":"0045995204","NAME":"ST. JOSEPH'S BEHAVIORAL HEALTH CENTER","ADDRESS":"2510 NORTH CALIFORNIA STREET","CITY":"STOCKTON","STATE":"CA","ZIP":"95204","ZIP4":"NOT AVAILABLE","TELEPHONE":"NOT AVAILABLE","TYPE":"PSYCHIATRIC","STATUS":"OPEN","POPULATION":35,"COUNTY":"SAN JOAQUIN","COUNTYFIPS":"06077","COUNTRY":"USA","LATITUDE":37.97659630000004,"LONGITUDE":-121.29107092599997,"NAICS_CODE":"622210","NAICS_DESC":"PSYCHIATRIC AND SUBSTANCE ABUSE HOSPITALS","SOURCE":"http://www.oshpd.ca.gov/hid/facility-listing.html","SOURCEDATE":"2019-08-02T00:00:00.000Z","VAL_METHOD":"IMAGERY/OTHER","VAL_DATE":"2014-02-10T00:00:00.000Z","WEBSITE":"http://www.stjosephscanhelp.org","STATE_ID":"NOT AVAILABLE","ALT_NAME":"NOT AVAILABLE","ST_FIPS":"06","OWNER":"NON-PROFIT","TTL_STAFF":-999,"BEDS":35,"TRAUMA":"NOT AVAILABLE","HELIPAD":"N"},"id":72},
{"type":"Feature","geometry":{"type":"Point","coordinates":[-121.28818,37.97047]},"properties":{"ID":"0046095204","NAME":"ST. JOSEPH'S MEDICAL CENTER OF STOCKTON","ADDRESS":"1800 NORTH CALIFORNIA STREET","CITY":"STOCKTON","STATE":"CA","ZIP":"95204","ZIP4":"NOT AVAILABLE","TELEPHONE":"NOT AVAILABLE","TYPE":"GENERAL ACUTE CARE","STATUS":"OPEN","POPULATION":364,"COUNTY":"SAN JOAQUIN","COUNTYFIPS":"06077","COUNTRY":"USA","LATITUDE":37.97046718800004,"LONGITUDE":-121.28818276199996,"NAICS_CODE":"622110","NAICS_DESC":"GENERAL MEDICAL AND SURGICAL HOSPITALS","SOURCE":"http://www.oshpd.ca.gov/hid/facility-listing.html","SOURCEDATE":"2019-08-02T00:00:00.000Z","VAL_METHOD":"IMAGERY","VAL_DATE":"2014-02-10T00:00:00.000Z","WEBSITE":"http://www.stjosephscares.org","STATE_ID":"NOT AVAILABLE","ALT_NAME":"NOT AVAILABLE","ST_FIPS":"06","OWNER":"NON-PROFIT","TTL_STAFF":-999,"BEDS":364,"TRAUMA":"NOT AVAILABLE","HELIPAD":"Y"},"id":73},
{"type":"Feature","geometry":{"type":"Point","coordinates":[-117.87126,34.13265]},"properties":{"ID":"0013291741","NAME":"FOOTHILL PRESBYTERIAN HOSPITAL-JOHNSTON MEMORIAL","ADDRESS":"250 SOUTH GRAND AVENUE","CITY":"GLENDORA","STATE":"CA","ZIP":"91741","ZIP4":"NOT AVAILABLE","TELEPHONE":"NOT AVAILABLE","TYPE":"GENERAL ACUTE CARE","STATUS":"OPEN","POPULATION":105,"COUNTY":"LOS ANGELES","COUNTYFIPS":"06037","COUNTRY":"USA","LATITUDE":34.13265457600005,"LONGITUDE":-117.87125971599994,"NAICS_CODE":"622110","NAICS_DESC":"GENERAL MEDICAL AND SURGICAL HOSPITALS","SOURCE":"http://www.oshpd.ca.gov/hid/facility-listing.html","SOURCEDATE":"2019-08-02T00:00:00.000Z","VAL_METHOD":"IMAGERY/OTHER","VAL_DATE":"2014-02-10T00:00:00.000Z","WEBSITE":"http://www.cvhp.org/our_facilities/foothill_presbyterian.aspx","STATE_ID":"NOT AVAILABLE","ALT_NAME":"NOT AVAILABLE","ST_FIPS":"06","OWNER":"NON-PROFIT","TTL_STAFF":-999,"BEDS":105,"TRAUMA":"NOT AVAILABLE","HELIPAD":"Y"},"id":74},
{"type":"Feature","geometry":{"type":"Point","coordinates":[-118.25664,34.12817]},"properties":{"ID":"0014791204","NAME":"GLENDALE MEMORIAL HOSPITAL AND HEALTH CENTER","ADDRESS":"1420 SOUTH CENTRAL AVENUE","CITY":"GLENDALE","STATE":"CA","ZIP":"91204","ZIP4":"NOT AVAILABLE","TELEPHONE":"NOT AVAILABLE","TYPE":"GENERAL ACUTE CARE","STATUS":"OPEN","POPULATION":334,"COUNTY":"LOS ANGELES","COUNTYFIPS":"06037","COUNTRY":"USA","LATITUDE":34.12816562800003,"LONGITUDE":-118.25664316899997,"NAICS_CODE":"622110","NAICS_DESC":"GENERAL MEDICAL AND SURGICAL HOSPITALS","SOURCE":"http://www.oshpd.ca.gov/hid/facility-listing.html","SOURCEDATE":"2019-08-02T00:00:00.000Z","VAL_METHOD":"IMAGERY/OTHER","VAL_DATE":"2014-02-10T00:00:00.000Z","WEBSITE":"http://www.glendalememorial.com","STATE_ID":"NOT AVAILABLE","ALT_NAME":"NOT AVAILABLE","ST_FIPS":"06","OWNER":"NON-PROFIT","TTL_STAFF":-999,"BEDS":334,"TRAUMA":"NOT AVAILABLE","HELIPAD":"N"},"id":75},
{"type":"Feature","geometry":{"type":"Point","coordinates":[-118.29418,34.09857]},"properties":{"ID":"0019090027","NAME":"KAISER FOUNDATION LOS ANGELES MEDICAL CENTER","ADDRESS":"4867 SUNSET BOULEVARD","CITY":"LOS ANGELES","STATE":"CA","ZIP":"90027","ZIP4":"NOT AVAILABLE","TELEPHONE":"NOT AVAILABLE","TYPE":"GENERAL ACUTE CARE","STATUS":"OPEN","POPULATION":460,"COUNTY":"LOS ANGELES","COUNTYFIPS":"06037","COUNTRY":"USA","LATITUDE":34.09857364900006,"LONGITUDE":-118.29417533099996,"NAICS_CODE":"622110","NAICS_DESC":"GENERAL MEDICAL AND SURGICAL HOSPITALS","SOURCE":"http://www.oshpd.ca.gov/hid/facility-listing.html","SOURCEDATE":"2019-08-02T00:00:00.000Z","VAL_METHOD":"IMAGERY/OTHER","VAL_DATE":"2014-02-10T00:00:00.000Z","WEBSITE":"http://www.kaiserpermanente.org","STATE_ID":"NOT AVAILABLE","ALT_NAME":"NOT AVAILABLE","ST_FIPS":"06","OWNER":"NON-PROFIT","TTL_STAFF":-999,"BEDS":460,"TRAUMA":"NOT AVAILABLE","HELIPAD":"N"},"id":76},
{"type":"Feature","geometry":{"type":"Point","coordinates":[-118.43022,34.21856]},"properties":{"ID":"0019391402","NAME":"KAISER PERMANENTE PANORAMA CITY","ADDRESS":"13652 CANTARA STREET","CITY":"PANORAMA CITY","STATE":"CA","ZIP":"91402","ZIP4":"NOT AVAILABLE","TELEPHONE":"NOT AVAILABLE","TYPE":"GENERAL ACUTE CARE","STATUS":"OPEN","POPULATION":218,"COUNTY":"LOS ANGELES","COUNTYFIPS":"06037","COUNTRY":"USA","LATITUDE":34.218564194000066,"LONGITUDE":-118.43021929399998,"NAICS_CODE":"622110","NAICS_DESC":"GENERAL MEDICAL AND SURGICAL HOSPITALS","SOURCE":"http://www.oshpd.ca.gov/hid/facility-listing.html","SOURCEDATE":"2019-08-02T00:00:00.000Z","VAL_METHOD":"IMAGERY/OTHER","VAL_DATE":"2014-02-10T00:00:00.000Z","WEBSITE":"http://www.kaiserpermanente.org","STATE_ID":"NOT AVAILABLE","ALT_NAME":"NOT AVAILABLE","ST_FIPS":"06","OWNER":"NON-PROFIT","TTL_STAFF":-999,"BEDS":218,"TRAUMA":"NOT AVAILABLE","HELIPAD":"N"},"id":77},
{"type":"Feature","geometry":{"type":"Point","coordinates":[-118.5319,34.17039]},"properties":{"ID":"0036691356","NAME":"PROVIDENCE TARZANA MEDICAL CENTER","ADDRESS":"18321 CLARK STREET","CITY":"TARZANA","STATE":"CA","ZIP":"91356","ZIP4":"NOT AVAILABLE","TELEPHONE":"NOT AVAILABLE","TYPE":"GENERAL ACUTE CARE","STATUS":"OPEN","POPULATION":249,"COUNTY":"LOS ANGELES","COUNTYFIPS":"06037","COUNTRY":"USA","LATITUDE":34.170393216000036,"LONGITUDE":-118.53190405899994,"NAICS_CODE":"622110","NAICS_DESC":"GENERAL MEDICAL AND SURGICAL HOSPITALS","SOURCE":"http://www.oshpd.ca.gov/hid/facility-listing.html","SOURCEDATE":"2019-08-02T00:00:00.000Z","VAL_METHOD":"IMAGERY","VAL_DATE":"2014-02-10T00:00:00.000Z","WEBSITE":"http://california.providence.org/","STATE_ID":"NOT AVAILABLE","ALT_NAME":"NOT AVAILABLE","ST_FIPS":"06","OWNER":"NON-PROFIT","TTL_STAFF":-999,"BEDS":249,"TRAUMA":"NOT AVAILABLE","HELIPAD":"N"},"id":78},
{"type":"Feature","geometry":{"type":"Point","coordinates":[-118.28639,34.0672]},"properties":{"ID":"0042990020","NAME":"SHRINERS HOSPITAL FOR CHILDREN - L.A.","ADDRESS":"3160 GENEVA STREET","CITY":"LOS ANGELES","STATE":"CA","ZIP":"90020","ZIP4":"NOT AVAILABLE","TELEPHONE":"NOT AVAILABLE","TYPE":"GENERAL ACUTE CARE","STATUS":"OPEN","POPULATION":60,"COUNTY":"LOS ANGELES","COUNTYFIPS":"06037","COUNTRY":"USA","LATITUDE":34.06720477700003,"LONGITUDE":-118.28639207899994,"NAICS_CODE":"622110","NAICS_DESC":"GENERAL MEDICAL AND SURGICAL HOSPITALS","SOURCE":"http://www.oshpd.ca.gov/hid/facility-listing.html","SOURCEDATE":"2019-08-02T00:00:00.000Z","VAL_METHOD":"IMAGERY","VAL_DATE":"2014-02-10T00:00:00.000Z","WEBSITE":"http://www.shrinershospitalsforchildren.org/hospitals/locations/losa ngeles.aspx","STATE_ID":"NOT AVAILABLE","ALT_NAME":"NOT AVAILABLE","ST_FIPS":"06","OWNER":"NON-PROFIT","TTL_STAFF":-999,"BEDS":60,"TRAUMA":"NOT AVAILABLE","HELIPAD":"N"},"id":79},
{"type":"Feature","geometry":{"type":"Point","coordinates":[-118.07968,33.83364]},"properties":{"ID":"0050190716","NAME":"GARDENS REGIONAL HOSPITAL AND MEDICAL CENTER","ADDRESS":"21530 SOUTH PIONEER BOULEVARD","CITY":"HAWAIIAN GARDENS","STATE":"CA","ZIP":"90716","ZIP4":"NOT AVAILABLE","TELEPHONE":"NOT AVAILABLE","TYPE":"GENERAL ACUTE CARE","STATUS":"OPEN","POPULATION":107,"COUNTY":"LOS ANGELES","COUNTYFIPS":"06037","COUNTRY":"USA","LATITUDE":33.83364000700004,"LONGITUDE":-118.07967795099995,"NAICS_CODE":"622110","NAICS_DESC":"GENERAL MEDICAL AND SURGICAL HOSPITALS","SOURCE":"http://www.oshpd.ca.gov/hid/facility-listing.html","SOURCEDATE":"2019-08-02T00:00:00.000Z","VAL_METHOD":"IMAGERY/OTHER","VAL_DATE":"2014-02-10T00:00:00.000Z","WEBSITE":"http://www.tcrmc.org/","STATE_ID":"NOT AVAILABLE","ALT_NAME":"TRI-CITY REGIONAL MEDICAL CENTER","ST_FIPS":"06","OWNER":"NON-PROFIT","TTL_STAFF":-999,"BEDS":107,"TRAUMA":"NOT AVAILABLE","HELIPAD":"N"},"id":80},
{"type":"Feature","geometry":{"type":"Point","coordinates":[-122.62014,38.93562]},"properties":{"ID":"0045295422","NAME":"ADVENTIST HEALTH CLEARLAKE","ADDRESS":"15630 18TH AVE - HWY 53","CITY":"CLEARLAKE","STATE":"CA","ZIP":"95422","ZIP4":"NOT AVAILABLE","TELEPHONE":"NOT AVAILABLE","TYPE":"GENERAL ACUTE CARE","STATUS":"OPEN","POPULATION":32,"COUNTY":"LAKE","COUNTYFIPS":"06033","COUNTRY":"USA","LATITUDE":38.93561885500003,"LONGITUDE":-122.62014453199998,"NAICS_CODE":"622110","NAICS_DESC":"GENERAL MEDICAL AND SURGICAL HOSPITALS","SOURCE":"http://www.oshpd.ca.gov/hid/facility-listing.html","SOURCEDATE":"2019-08-02T00:00:00.000Z","VAL_METHOD":"IMAGERY/OTHER","VAL_DATE":"2014-02-10T00:00:00.000Z","WEBSITE":"http://www.adventisthealth.org","STATE_ID":"NOT AVAILABLE","ALT_NAME":"NOT AVAILABLE","ST_FIPS":"06","OWNER":"NON-PROFIT","TTL_STAFF":-999,"BEDS":32,"TRAUMA":"NOT AVAILABLE","HELIPAD":"Y"},"id":81},
{"type":"Feature","geometry":{"type":"Point","coordinates":[-119.80024,36.88405]},"properties":{"ID":"0006193638","NAME":"VALLEY CHILDREN'S HOSPITAL","ADDRESS":"9300 VALLEY CHILDREN'S PLACE","CITY":"MADERA","STATE":"CA","ZIP":"93638","ZIP4":"NOT AVAILABLE","TELEPHONE":"NOT AVAILABLE","TYPE":"CHILDREN","STATUS":"OPEN","POPULATION":356,"COUNTY":"MADERA","COUNTYFIPS":"06039","COUNTRY":"USA","LATITUDE":36.88404783400006,"LONGITUDE":-119.80024241199999,"NAICS_CODE":"622110","NAICS_DESC":"CHILDREN'S HOSPITALS, GENERAL","SOURCE":"http://www.oshpd.ca.gov/hid/facility-listing.html","SOURCEDATE":"2019-08-02T00:00:00.000Z","VAL_METHOD":"IMAGERY/OTHER","VAL_DATE":"2014-02-10T00:00:00.000Z","WEBSITE":"http://www.valleychildrens.org/pages/default.aspx","STATE_ID":"NOT AVAILABLE","ALT_NAME":"CHILDREN'S HOSPITAL CENTRAL CALIFORNIA","ST_FIPS":"06","OWNER":"NON-PROFIT","TTL_STAFF":-999,"BEDS":356,"TRAUMA":"NOT AVAILABLE","HELIPAD":"Y"},"id":82},
{"type":"Feature","geometry":{"type":"Point","coordinates":[-116.40624,33.76335]},"properties":{"ID":"0011792270","NAME":"EISENHOWER MEDICAL CENTER","ADDRESS":"39-000 BOB HOPE DRIVE","CITY":"RANCHO MIRAGE","STATE":"CA","ZIP":"92270","ZIP4":"NOT AVAILABLE","TELEPHONE":"NOT AVAILABLE","TYPE":"GENERAL ACUTE CARE","STATUS":"OPEN","POPULATION":489,"COUNTY":"RIVERSIDE","COUNTYFIPS":"06065","COUNTRY":"USA","LATITUDE":33.763352068000074,"LONGITUDE":-116.40624109099997,"NAICS_CODE":"622110","NAICS_DESC":"GENERAL MEDICAL AND SURGICAL HOSPITALS","SOURCE":"http://www.oshpd.ca.gov/hid/facility-listing.html","SOURCEDATE":"2019-08-02T00:00:00.000Z","VAL_METHOD":"IMAGERY/OTHER","VAL_DATE":"2014-02-10T00:00:00.000Z","WEBSITE":"http://www.emc.org","STATE_ID":"NOT AVAILABLE","ALT_NAME":"NOT AVAILABLE","ST_FIPS":"06","OWNER":"NON-PROFIT","TTL_STAFF":-999,"BEDS":489,"TRAUMA":"NOT AVAILABLE","HELIPAD":"Y"},"id":83},
{"type":"Feature","geometry":{"type":"Point","coordinates":[-121.94658,37.25208]},"properties":{"ID":"0015295124","NAME":"GOOD SAMARITAN HOSPITAL-SAN JOSE","ADDRESS":"2425 SAMARITAN DRIVE","CITY":"SAN JOSE","STATE":"CA","ZIP":"95124","ZIP4":"NOT AVAILABLE","TELEPHONE":"NOT AVAILABLE","TYPE":"GENERAL ACUTE CARE","STATUS":"OPEN","POPULATION":404,"COUNTY":"SANTA CLARA","COUNTYFIPS":"06085","COUNTRY":"USA","LATITUDE":37.252078736000044,"LONGITUDE":-121.94657687499995,"NAICS_CODE":"622110","NAICS_DESC":"GENERAL MEDICAL AND SURGICAL HOSPITALS","SOURCE":"http://www.oshpd.ca.gov/hid/facility-listing.html","SOURCEDATE":"2019-08-02T00:00:00.000Z","VAL_METHOD":"IMAGERY/OTHER","VAL_DATE":"2014-02-10T00:00:00.000Z","WEBSITE":"http://www.goodsamsanjose.com","STATE_ID":"NOT AVAILABLE","ALT_NAME":"NOT AVAILABLE","ST_FIPS":"06","OWNER":"NON-PROFIT","TTL_STAFF":-999,"BEDS":404,"TRAUMA":"NOT AVAILABLE","HELIPAD":"Y"},"id":84},
{"type":"Feature","geometry":{"type":"Point","coordinates":[-121.99887,37.3354]},"properties":{"ID":"0020495051","NAME":"KAISER FND HOSP - SANTA CLARA","ADDRESS":"700 LAWRENCE EXPRESSWAY","CITY":"SANTA CLARA","STATE":"CA","ZIP":"95051","ZIP4":"NOT AVAILABLE","TELEPHONE":"NOT AVAILABLE","TYPE":"GENERAL ACUTE CARE","STATUS":"OPEN","POPULATION":327,"COUNTY":"SANTA CLARA","COUNTYFIPS":"06085","COUNTRY":"USA","LATITUDE":37.33540137500006,"LONGITUDE":-121.99887304699996,"NAICS_CODE":"622110","NAICS_DESC":"GENERAL MEDICAL AND SURGICAL HOSPITALS","SOURCE":"http://www.oshpd.ca.gov/hid/facility-listing.html","SOURCEDATE":"2019-08-02T00:00:00.000Z","VAL_METHOD":"IMAGERY","VAL_DATE":"2014-02-10T00:00:00.000Z","WEBSITE":"http://www.kaiserpermanente.org","STATE_ID":"NOT AVAILABLE","ALT_NAME":"NOT AVAILABLE","ST_FIPS":"06","OWNER":"NON-PROFIT","TTL_STAFF":-999,"BEDS":327,"TRAUMA":"NOT AVAILABLE","HELIPAD":"Y"},"id":85},
{"type":"Feature","geometry":{"type":"Point","coordinates":[-122.17539,37.436]},"properties":{"ID":"0027094304","NAME":"LUCILE SALTER PACKARD CHILDREN'S HOSP. AT STANFORD","ADDRESS":"725 WELCH ROAD","CITY":"PALO ALTO","STATE":"CA","ZIP":"94304","ZIP4":"NOT AVAILABLE","TELEPHONE":"NOT AVAILABLE","TYPE":"GENERAL ACUTE CARE","STATUS":"OPEN","POPULATION":302,"COUNTY":"SANTA CLARA","COUNTYFIPS":"06085","COUNTRY":"USA","LATITUDE":37.43600457500003,"LONGITUDE":-122.17539003599995,"NAICS_CODE":"622110","NAICS_DESC":"GENERAL MEDICAL AND SURGICAL HOSPITALS","SOURCE":"http://www.oshpd.ca.gov/hid/facility-listing.html","SOURCEDATE":"2019-08-02T00:00:00.000Z","VAL_METHOD":"IMAGERY","VAL_DATE":"2014-03-12T00:00:00.000Z","WEBSITE":"http://www.lpch.org","STATE_ID":"NOT AVAILABLE","ALT_NAME":"NOT AVAILABLE","ST_FIPS":"06","OWNER":"NON-PROFIT","TTL_STAFF":-999,"BEDS":302,"TRAUMA":"NOT AVAILABLE","HELIPAD":"Y"},"id":86},
{"type":"Feature","geometry":{"type":"Point","coordinates":[-122.22339,37.48885]},"properties":{"ID":"0019494063","NAME":"KAISER FND HOSP - REDWOOD CITY","ADDRESS":"1100 VETERANS BOULEVARD","CITY":"REDWOOD CITY","STATE":"CA","ZIP":"94063","ZIP4":"NOT AVAILABLE","TELEPHONE":"NOT AVAILABLE","TYPE":"GENERAL ACUTE CARE","STATUS":"OPEN","POPULATION":149,"COUNTY":"SAN MATEO","COUNTYFIPS":"06081","COUNTRY":"USA","LATITUDE":37.48884783600005,"LONGITUDE":-122.22339013099997,"NAICS_CODE":"622110","NAICS_DESC":"GENERAL MEDICAL AND SURGICAL HOSPITALS","SOURCE":"http://www.oshpd.ca.gov/hid/facility-listing.html","SOURCEDATE":"2019-08-02T00:00:00.000Z","VAL_METHOD":"IMAGERY/OTHER","VAL_DATE":"2014-02-10T00:00:00.000Z","WEBSITE":"http://www.kaiserpermanente.org","STATE_ID":"NOT AVAILABLE","ALT_NAME":"NOT AVAILABLE","ST_FIPS":"06","OWNER":"NON-PROFIT","TTL_STAFF":-999,"BEDS":149,"TRAUMA":"NOT AVAILABLE","HELIPAD":"N"},"id":87},
{"type":"Feature","geometry":{"type":"Point","coordinates":[-122.0335,37.98309]},"properties":{"ID":"0018094520","NAME":"JOHN MUIR MEDICAL CENTER-CONCORD CAMPUS","ADDRESS":"2540 EAST STREET","CITY":"CONCORD","STATE":"CA","ZIP":"94520","ZIP4":"NOT AVAILABLE","TELEPHONE":"NOT AVAILABLE","TYPE":"GENERAL ACUTE CARE","STATUS":"OPEN","POPULATION":245,"COUNTY":"CONTRA COSTA","COUNTYFIPS":"06013","COUNTRY":"USA","LATITUDE":37.98308957900008,"LONGITUDE":-122.03349679599995,"NAICS_CODE":"622110","NAICS_DESC":"GENERAL MEDICAL AND SURGICAL HOSPITALS","SOURCE":"http://www.oshpd.ca.gov/hid/facility-listing.html","SOURCEDATE":"2019-08-02T00:00:00.000Z","VAL_METHOD":"IMAGERY/OTHER","VAL_DATE":"2014-02-10T00:00:00.000Z","WEBSITE":"http://www.johnmuirhealth.com","STATE_ID":"NOT AVAILABLE","ALT_NAME":"NOT AVAILABLE","ST_FIPS":"06","OWNER":"NON-PROFIT","TTL_STAFF":-999,"BEDS":245,"TRAUMA":"NOT AVAILABLE","HELIPAD":"N"},"id":88},
{"type":"Feature","geometry":{"type":"Point","coordinates":[-121.80298,37.98223]},"properties":{"ID":"0047794509","NAME":"SUTTER DELTA MEDICAL CENTER","ADDRESS":"3901 LONE TREE WAY","CITY":"ANTIOCH","STATE":"CA","ZIP":"94509","ZIP4":"NOT AVAILABLE","TELEPHONE":"NOT AVAILABLE","TYPE":"GENERAL ACUTE CARE","STATUS":"OPEN","POPULATION":145,"COUNTY":"CONTRA COSTA","COUNTYFIPS":"06013","COUNTRY":"USA","LATITUDE":37.98223445000008,"LONGITUDE":-121.80297850499994,"NAICS_CODE":"622110","NAICS_DESC":"GENERAL MEDICAL AND SURGICAL HOSPITALS","SOURCE":"http://www.oshpd.ca.gov/hid/facility-listing.html","SOURCEDATE":"2019-08-02T00:00:00.000Z","VAL_METHOD":"IMAGERY","VAL_DATE":"2014-02-10T00:00:00.000Z","WEBSITE":"http://www.sutterdelta.org","STATE_ID":"NOT AVAILABLE","ALT_NAME":"NOT AVAILABLE","ST_FIPS":"06","OWNER":"NON-PROFIT","TTL_STAFF":-999,"BEDS":145,"TRAUMA":"NOT AVAILABLE","HELIPAD":"N"},"id":89},
{"type":"Feature","geometry":{"type":"Point","coordinates":[-121.39314,38.6018]},"properties":{"ID":"0019995825","NAME":"KAISER FND HOSP - SACRAMENTO","ADDRESS":"2025 MORSE AVENUE","CITY":"SACRAMENTO","STATE":"CA","ZIP":"95825","ZIP4":"NOT AVAILABLE","TELEPHONE":"NOT AVAILABLE","TYPE":"GENERAL ACUTE CARE","STATUS":"OPEN","POPULATION":287,"COUNTY":"SACRAMENTO","COUNTYFIPS":"06067","COUNTRY":"USA","LATITUDE":38.60179775100005,"LONGITUDE":-121.39314402599996,"NAICS_CODE":"622110","NAICS_DESC":"GENERAL MEDICAL AND SURGICAL HOSPITALS","SOURCE":"http://www.oshpd.ca.gov/hid/facility-listing.html","SOURCEDATE":"2019-08-02T00:00:00.000Z","VAL_METHOD":"IMAGERY","VAL_DATE":"2014-02-10T00:00:00.000Z","WEBSITE":"http://www.kaiserpermanente.org","STATE_ID":"NOT AVAILABLE","ALT_NAME":"NOT AVAILABLE","ST_FIPS":"06","OWNER":"NON-PROFIT","TTL_STAFF":-999,"BEDS":287,"TRAUMA":"NOT AVAILABLE","HELIPAD":"N"},"id":90},
{"type":"Feature","geometry":{"type":"Point","coordinates":[-121.0475,39.22802]},"properties":{"ID":"0043195945","NAME":"SIERRA NEVADA MEMORIAL HOSPITAL","ADDRESS":"155 GLASSON WAY","CITY":"GRASS VALLEY","STATE":"CA","ZIP":"95945","ZIP4":"NOT AVAILABLE","TELEPHONE":"NOT AVAILABLE","TYPE":"GENERAL ACUTE CARE","STATUS":"OPEN","POPULATION":104,"COUNTY":"NEVADA","COUNTYFIPS":"06057","COUNTRY":"USA","LATITUDE":39.22801629400004,"LONGITUDE":-121.04749977899996,"NAICS_CODE":"622110","NAICS_DESC":"GENERAL MEDICAL AND SURGICAL HOSPITALS","SOURCE":"http://www.oshpd.ca.gov/hid/facility-listing.html","SOURCEDATE":"2019-08-02T00:00:00.000Z","VAL_METHOD":"IMAGERY","VAL_DATE":"2014-02-10T00:00:00.000Z","WEBSITE":"http://www.snmh.org","STATE_ID":"NOT AVAILABLE","ALT_NAME":"NOT AVAILABLE","ST_FIPS":"06","OWNER":"NON-PROFIT","TTL_STAFF":-999,"BEDS":104,"TRAUMA":"NOT AVAILABLE","HELIPAD":"Y"},"id":91},
{"type":"Feature","geometry":{"type":"Point","coordinates":[-118.0383,33.84751]},"properties":{"ID":"0024690623","NAME":"LA PALMA INTERCOMMUNITY HOSPITAL","ADDRESS":"7901 WALKER STREET","CITY":"LA PALMA","STATE":"CA","ZIP":"90623","ZIP4":"NOT AVAILABLE","TELEPHONE":"NOT AVAILABLE","TYPE":"GENERAL ACUTE CARE","STATUS":"OPEN","POPULATION":141,"COUNTY":"ORANGE","COUNTYFIPS":"06059","COUNTRY":"USA","LATITUDE":33.847514181000065,"LONGITUDE":-118.03830233199994,"NAICS_CODE":"622110","NAICS_DESC":"GENERAL MEDICAL AND SURGICAL HOSPITALS","SOURCE":"http://www.oshpd.ca.gov/hid/facility-listing.html","SOURCEDATE":"2019-08-02T00:00:00.000Z","VAL_METHOD":"IMAGERY","VAL_DATE":"2014-02-10T00:00:00.000Z","WEBSITE":"http://www.lapalmaintercommunityhospital.com","STATE_ID":"NOT AVAILABLE","ALT_NAME":"NOT AVAILABLE","ST_FIPS":"06","OWNER":"NON-PROFIT","TTL_STAFF":-999,"BEDS":141,"TRAUMA":"NOT AVAILABLE","HELIPAD":"Y"},"id":92},
{"type":"Feature","geometry":{"type":"Point","coordinates":[-117.65018,33.45707]},"properties":{"ID":"0038492673","NAME":"SADDLEBACK MEMORIAL MEDICAL CENTER - SAN CLEMENTE","ADDRESS":"654 CAMINO DE LOS MARES","CITY":"SAN CLEMENTE","STATE":"CA","ZIP":"92673","ZIP4":"NOT AVAILABLE","TELEPHONE":"NOT AVAILABLE","TYPE":"GENERAL ACUTE CARE","STATUS":"CLOSED","POPULATION":73,"COUNTY":"ORANGE","COUNTYFIPS":"06059","COUNTRY":"USA","LATITUDE":33.457065243000045,"LONGITUDE":-117.65018391799998,"NAICS_CODE":"622110","NAICS_DESC":"GENERAL MEDICAL AND SURGICAL HOSPITALS","SOURCE":"http://www.oshpd.ca.gov/hid/facility-listing.html","SOURCEDATE":"2016-02-04T00:00:00.000Z","VAL_METHOD":"IMAGERY","VAL_DATE":"2014-02-10T00:00:00.000Z","WEBSITE":"http://www.memorialcare.org","STATE_ID":"NOT AVAILABLE","ALT_NAME":"NOT AVAILABLE","ST_FIPS":"06","OWNER":"NON-PROFIT","TTL_STAFF":-999,"BEDS":73,"TRAUMA":"NOT AVAILABLE","HELIPAD":"N"},"id":93},
{"type":"Feature","geometry":{"type":"Point","coordinates":[-121.61801,39.14311]},"properties":{"ID":"0013795991","NAME":"FREMONT MEDICAL CENTER","ADDRESS":"970 PLUMAS STREET","CITY":"YUBA CITY","STATE":"CA","ZIP":"95991","ZIP4":"NOT AVAILABLE","TELEPHONE":"NOT AVAILABLE","TYPE":"GENERAL ACUTE CARE","STATUS":"OPEN","POPULATION":46,"COUNTY":"SUTTER","COUNTYFIPS":"06101","COUNTRY":"USA","LATITUDE":39.143106319000026,"LONGITUDE":-121.61801202199996,"NAICS_CODE":"622110","NAICS_DESC":"GENERAL MEDICAL AND SURGICAL HOSPITALS","SOURCE":"http://www.oshpd.ca.gov/hid/facility-listing.html","SOURCEDATE":"2019-08-02T00:00:00.000Z","VAL_METHOD":"IMAGERY/OTHER","VAL_DATE":"2014-02-10T00:00:00.000Z","WEBSITE":"http://www.frhg.org/","STATE_ID":"NOT AVAILABLE","ALT_NAME":"NOT AVAILABLE","ST_FIPS":"06","OWNER":"NON-PROFIT","TTL_STAFF":-999,"BEDS":46,"TRAUMA":"NOT AVAILABLE","HELIPAD":"N"},"id":94},
{"type":"Feature","geometry":{"type":"Point","coordinates":[-84.41291,34.45825]},"properties":{"ID":"0010230143","NAME":"PIEDMONT MOUNTAINSIDE HOSPITAL","ADDRESS":"1266 EAST CHURCH STREET","CITY":"JASPER","STATE":"GA","ZIP":"30143","ZIP4":"NOT AVAILABLE","TELEPHONE":"NOT AVAILABLE","TYPE":"GENERAL ACUTE CARE","STATUS":"OPEN","POPULATION":48,"COUNTY":"PICKENS","COUNTYFIPS":"13227","COUNTRY":"USA","LATITUDE":34.458248680000054,"LONGITUDE":-84.41291289099996,"NAICS_CODE":"622110","NAICS_DESC":"GENERAL MEDICAL AND SURGICAL HOSPITALS","SOURCE":"http://www.gamap2care.info/","SOURCEDATE":"2019-08-09T00:00:00.000Z","VAL_METHOD":"IMAGERY","VAL_DATE":"2014-02-10T00:00:00.000Z","WEBSITE":"http://www.piedmontmountainsidehospital.org","STATE_ID":"100","ALT_NAME":"NOT AVAILABLE","ST_FIPS":"13","OWNER":"NON-PROFIT","TTL_STAFF":-999,"BEDS":52,"TRAUMA":"NOT AVAILABLE","HELIPAD":"N"},"id":95},
{"type":"Feature","geometry":{"type":"Point","coordinates":[-83.40525,33.94722]},"properties":{"ID":"0015530606","NAME":"ST MARYS HEALTH CARE SYSTEM","ADDRESS":"1230 BAXTER STREET","CITY":"ATHENS","STATE":"GA","ZIP":"30606","ZIP4":"NOT AVAILABLE","TELEPHONE":"NOT AVAILABLE","TYPE":"GENERAL ACUTE CARE","STATUS":"OPEN","POPULATION":165,"COUNTY":"CLARKE","COUNTYFIPS":"13059","COUNTRY":"USA","LATITUDE":33.94722131700007,"LONGITUDE":-83.40525245899994,"NAICS_CODE":"622110","NAICS_DESC":"GENERAL MEDICAL AND SURGICAL HOSPITALS","SOURCE":"http://www.gamap2care.info/","SOURCEDATE":"2019-08-09T00:00:00.000Z","VAL_METHOD":"IMAGERY","VAL_DATE":"2014-02-10T00:00:00.000Z","WEBSITE":"http://www.stmarysathens.com","STATE_ID":"154","ALT_NAME":"NOT AVAILABLE","ST_FIPS":"13","OWNER":"NON-PROFIT","TTL_STAFF":-999,"BEDS":196,"TRAUMA":"NOT AVAILABLE","HELIPAD":"Y"},"id":96},
{"type":"Feature","geometry":{"type":"Point","coordinates":[-84.51105,33.85644]},"properties":{"ID":"0014130080","NAME":"RIDGEVIEW INSTITUTE","ADDRESS":"3995 SOUTH COBB DRIVE SE","CITY":"SMYRNA","STATE":"GA","ZIP":"30080","ZIP4":"NOT AVAILABLE","TELEPHONE":"NOT AVAILABLE","TYPE":"PSYCHIATRIC","STATUS":"OPEN","POPULATION":92,"COUNTY":"COBB","COUNTYFIPS":"13067","COUNTRY":"USA","LATITUDE":33.85644329100006,"LONGITUDE":-84.51105482999998,"NAICS_CODE":"622210","NAICS_DESC":"PSYCHIATRIC AND SUBSTANCE ABUSE HOSPITALS","SOURCE":"http://www.gamap2care.info/","SOURCEDATE":"2019-08-09T00:00:00.000Z","VAL_METHOD":"IMAGERY","VAL_DATE":"2014-02-10T00:00:00.000Z","WEBSITE":"http://www.ridgeviewinstitute.com","STATE_ID":"140","ALT_NAME":"NOT AVAILABLE","ST_FIPS":"13","OWNER":"NON-PROFIT","TTL_STAFF":-999,"BEDS":216,"TRAUMA":"NOT AVAILABLE","HELIPAD":"N"},"id":97},
{"type":"Feature","geometry":{"type":"Point","coordinates":[-71.8253,41.36219]},"properties":{"ID":"0000502891","NAME":"WESTERLY HOSPITAL","ADDRESS":"25 WELLS ST","CITY":"WESTERLY","STATE":"RI","ZIP":"02891","ZIP4":"NOT AVAILABLE","TELEPHONE":"(401) 596-6000","TYPE":"GENERAL ACUTE CARE","STATUS":"OPEN","POPULATION":125,"COUNTY":"WASHINGTON","COUNTYFIPS":"44009","COUNTRY":"USA","LATITUDE":41.36218907500006,"LONGITUDE":-71.82530324099997,"NAICS_CODE":"622110","NAICS_DESC":"GENERAL MEDICAL AND SURGICAL HOSPITALS","SOURCE":"http://www.health.ri.gov/licenses/detail.php?id=207","SOURCEDATE":"2019-08-10T00:00:00.000Z","VAL_METHOD":"IMAGERY","VAL_DATE":"2014-03-12T00:00:00.000Z","WEBSITE":"http://www.westerlyhospital.org/","STATE_ID":"6","ALT_NAME":"NOT AVAILABLE","ST_FIPS":"44","OWNER":"NON-PROFIT","TTL_STAFF":-999,"BEDS":125,"TRAUMA":"NOT AVAILABLE","HELIPAD":"N"},"id":98},
{"type":"Feature","geometry":{"type":"Point","coordinates":[-89.40143,43.05934]},"properties":{"ID":"0001553715","NAME":"ST MARYS HOSPITAL MADISON","ADDRESS":"700 SOUTH PARK ST","CITY":"MADISON","STATE":"WI","ZIP":"53715","ZIP4":"NOT AVAILABLE","TELEPHONE":"(608) 251-6100","TYPE":"GENERAL ACUTE CARE","STATUS":"OPEN","POPULATION":440,"COUNTY":"DANE","COUNTYFIPS":"55025","COUNTRY":"USA","LATITUDE":43.059338464000064,"LONGITUDE":-89.40142921499995,"NAICS_CODE":"622110","NAICS_DESC":"GENERAL MEDICAL AND SURGICAL HOSPITALS","SOURCE":"https://www.dhs.wisconsin.gov/guide/hospital.htm","SOURCEDATE":"2019-08-13T00:00:00.000Z","VAL_METHOD":"IMAGERY","VAL_DATE":"2014-02-10T00:00:00.000Z","WEBSITE":"http://www.stmarysmadison.com","STATE_ID":"71","ALT_NAME":"NOT AVAILABLE","ST_FIPS":"55","OWNER":"NON-PROFIT","TTL_STAFF":-999,"BEDS":440,"TRAUMA":"NOT AVAILABLE","HELIPAD":"Y"},"id":99},
{"type":"Feature","geometry":{"type":"Point","coordinates":[-88.00772,43.04677]},"properties":{"ID":"0008253213","NAME":"AURORA PSYCHIATRIC HSPTL","ADDRESS":"1220 DEWEY AVE","CITY":"WAUWATOSA","STATE":"WI","ZIP":"53213","ZIP4":"NOT AVAILABLE","TELEPHONE":"(414) 454-6600","TYPE":"PSYCHIATRIC","STATUS":"OPEN","POPULATION":105,"COUNTY":"MILWAUKEE","COUNTYFIPS":"55079","COUNTRY":"USA","LATITUDE":43.04676509800004,"LONGITUDE":-88.00771643299998,"NAICS_CODE":"622210","NAICS_DESC":"PSYCHIATRIC AND SUBSTANCE ABUSE HOSPITALS","SOURCE":"https://www.dhs.wisconsin.gov/guide/hospital.htm","SOURCEDATE":"2019-08-13T00:00:00.000Z","VAL_METHOD":"IMAGERY","VAL_DATE":"2020-05-05T00:00:00.000Z","WEBSITE":"http://www.aurorahealthcare.org","STATE_ID":"164","ALT_NAME":"NOT AVAILABLE","ST_FIPS":"55","OWNER":"NON-PROFIT","TTL_STAFF":-999,"BEDS":105,"TRAUMA":"NOT AVAILABLE","HELIPAD":"N"},"id":100},
{"type":"Feature","geometry":{"type":"Point","coordinates":[-87.92616,43.25668]},"properties":{"ID":"0009753097","NAME":"COLUMBIA CENTER","ADDRESS":"13125 N PORT WASHINGTON RD","CITY":"MEQUON","STATE":"WI","ZIP":"53097","ZIP4":"NOT AVAILABLE","TELEPHONE":"(262) 243-7408","TYPE":"GENERAL ACUTE CARE","STATUS":"OPEN","POPULATION":17,"COUNTY":"OZAUKEE","COUNTYFIPS":"55089","COUNTRY":"USA","LATITUDE":43.256677929000034,"LONGITUDE":-87.92615796199999,"NAICS_CODE":"622110","NAICS_DESC":"GENERAL MEDICAL AND SURGICAL HOSPITALS","SOURCE":"https://www.dhs.wisconsin.gov/guide/hospital.htm","SOURCEDATE":"2019-08-13T00:00:00.000Z","VAL_METHOD":"IMAGERY","VAL_DATE":"2020-05-05T00:00:00.000Z","WEBSITE":"http://www.columbiacenter.org","STATE_ID":"300","ALT_NAME":"NOT AVAILABLE","ST_FIPS":"55","OWNER":"NON-PROFIT","TTL_STAFF":-999,"BEDS":17,"TRAUMA":"NOT AVAILABLE","HELIPAD":"Y"},"id":101},
{"type":"Feature","geometry":{"type":"Point","coordinates":[-88.94123,43.97848]},"properties":{"ID":"0004354923","NAME":"THEDACARE MEDICAL CENTER BERLIN","ADDRESS":"225 MEMORIAL DRIVE","CITY":"BERLIN","STATE":"WI","ZIP":"54923","ZIP4":"NOT AVAILABLE","TELEPHONE":"(920) 361-1313","TYPE":"GENERAL ACUTE CARE","STATUS":"OPEN","POPULATION":25,"COUNTY":"GREEN LAKE","COUNTYFIPS":"55047","COUNTRY":"USA","LATITUDE":43.978477154000075,"LONGITUDE":-88.94122635999997,"NAICS_CODE":"622110","NAICS_DESC":"GENERAL MEDICAL AND SURGICAL HOSPITALS","SOURCE":"https://www.dhs.wisconsin.gov/guide/hospital.htm","SOURCEDATE":"2019-08-13T00:00:00.000Z","VAL_METHOD":"IMAGERY","VAL_DATE":"2014-02-10T00:00:00.000Z","WEBSITE":"http://www.chnwi.org","STATE_ID":"1060","ALT_NAME":"NOT AVAILABLE","ST_FIPS":"55","OWNER":"NON-PROFIT","TTL_STAFF":-999,"BEDS":25,"TRAUMA":"NOT AVAILABLE","HELIPAD":"Y"},"id":102},
{"type":"Feature","geometry":{"type":"Point","coordinates":[-94.18298,36.30899]},"properties":{"ID":"0063072758","NAME":"MERCY HOSPITAL ROGERS","ADDRESS":"2710 RIFE MEDICAL LANE","CITY":"ROGERS","STATE":"AR","ZIP":"72758","ZIP4":"NOT AVAILABLE","TELEPHONE":"(479) 338-8000","TYPE":"GENERAL ACUTE CARE","STATUS":"OPEN","POPULATION":-999,"COUNTY":"BENTON","COUNTYFIPS":"05007","COUNTRY":"USA","LATITUDE":36.30899285300006,"LONGITUDE":-94.18297801999995,"NAICS_CODE":"622110","NAICS_DESC":"GENERAL MEDICAL AND SURGICAL HOSPITALS","SOURCE":"http://www.healthy.arkansas.gov/programsservices/hslicensingregulation/healthfacilityservices/pages/providerlists.aspx","SOURCEDATE":"2019-08-08T00:00:00.000Z","VAL_METHOD":"IMAGERY/OTHER","VAL_DATE":"2014-12-02T00:00:00.000Z","WEBSITE":"NOT AVAILABLE","STATE_ID":"NOT AVAILABLE","ALT_NAME":"NOT AVAILABLE","ST_FIPS":"05","OWNER":"NOT AVAILABLE","TTL_STAFF":-999,"BEDS":208,"TRAUMA":"LEVEL III","HELIPAD":"Y"},"id":103},
{"type":"Feature","geometry":{"type":"Point","coordinates":[-92.64258,45.40903]},"properties":{"ID":"0010454024","NAME":"ST CROIX REG MED CTR","ADDRESS":"235 STATE STREET","CITY":"SAINT CROIX FALLS","STATE":"WI","ZIP":"54024","ZIP4":"NOT AVAILABLE","TELEPHONE":"(715) 483-3261","TYPE":"GENERAL ACUTE CARE","STATUS":"OPEN","POPULATION":25,"COUNTY":"POLK","COUNTYFIPS":"55095","COUNTRY":"USA","LATITUDE":45.40903243100007,"LONGITUDE":-92.64257811699997,"NAICS_CODE":"622110","NAICS_DESC":"GENERAL MEDICAL AND SURGICAL HOSPITALS","SOURCE":"https://www.dhs.wisconsin.gov/guide/hospital.htm","SOURCEDATE":"2019-08-13T00:00:00.000Z","VAL_METHOD":"IMAGERY","VAL_DATE":"2014-02-10T00:00:00.000Z","WEBSITE":"http://www.scrmc.org","STATE_ID":"1041","ALT_NAME":"NOT AVAILABLE","ST_FIPS":"55","OWNER":"NON-PROFIT","TTL_STAFF":-999,"BEDS":25,"TRAUMA":"LEVEL IV","HELIPAD":"Y"},"id":104},
{"type":"Feature","geometry":{"type":"Point","coordinates":[-92.5555,45.11776]},"properties":{"ID":"0011854017","NAME":"WESTFIELDS HOSPITAL","ADDRESS":"535 HOSPITAL RD","CITY":"NEW RICHMOND","STATE":"WI","ZIP":"54017","ZIP4":"NOT AVAILABLE","TELEPHONE":"(715) 246-2101","TYPE":"GENERAL ACUTE CARE","STATUS":"OPEN","POPULATION":25,"COUNTY":"ST. CROIX","COUNTYFIPS":"55109","COUNTRY":"USA","LATITUDE":45.11776074800008,"LONGITUDE":-92.55550037799998,"NAICS_CODE":"622110","NAICS_DESC":"GENERAL MEDICAL AND SURGICAL HOSPITALS","SOURCE":"https://www.dhs.wisconsin.gov/guide/hospital.htm","SOURCEDATE":"2019-08-13T00:00:00.000Z","VAL_METHOD":"IMAGERY","VAL_DATE":"2014-03-12T00:00:00.000Z","WEBSITE":"http://www.westfieldshospital.com","STATE_ID":"1050","ALT_NAME":"NOT AVAILABLE","ST_FIPS":"55","OWNER":"NON-PROFIT","TTL_STAFF":-999,"BEDS":25,"TRAUMA":"LEVEL IV","HELIPAD":"Y"},"id":105},
{"type":"Feature","geometry":{"type":"Point","coordinates":[-87.74754,43.76235]},"properties":{"ID":"0012453081","NAME":"ST NICHOLAS HOSPITAL","ADDRESS":"3100 SUPERIOR AVE","CITY":"SHEBOYGAN","STATE":"WI","ZIP":"53081","ZIP4":"NOT AVAILABLE","TELEPHONE":"(920) 459-8300","TYPE":"GENERAL ACUTE CARE","STATUS":"OPEN","POPULATION":185,"COUNTY":"SHEBOYGAN","COUNTYFIPS":"55117","COUNTRY":"USA","LATITUDE":43.762347901000055,"LONGITUDE":-87.74753795499998,"NAICS_CODE":"622110","NAICS_DESC":"GENERAL MEDICAL AND SURGICAL HOSPITALS","SOURCE":"https://www.dhs.wisconsin.gov/guide/hospital.htm","SOURCEDATE":"2019-08-13T00:00:00.000Z","VAL_METHOD":"IMAGERY","VAL_DATE":"2014-03-12T00:00:00.000Z","WEBSITE":"http://www.stnicholashospital.org","STATE_ID":"37","ALT_NAME":"NOT AVAILABLE","ST_FIPS":"55","OWNER":"NON-PROFIT","TTL_STAFF":-999,"BEDS":185,"TRAUMA":"LEVEL IV","HELIPAD":"Y"},"id":106},
{"type":"Feature","geometry":{"type":"Point","coordinates":[-90.88839,43.55167]},"properties":{"ID":"0013154665","NAME":"VERNON MEM HSPTL","ADDRESS":"507 SOUTH MAIN ST","CITY":"VIROQUA","STATE":"WI","ZIP":"54665","ZIP4":"NOT AVAILABLE","TELEPHONE":"(608) 637-2101","TYPE":"GENERAL ACUTE CARE","STATUS":"OPEN","POPULATION":25,"COUNTY":"VERNON","COUNTYFIPS":"55123","COUNTRY":"USA","LATITUDE":43.55167397300005,"LONGITUDE":-90.88839127799997,"NAICS_CODE":"622110","NAICS_DESC":"GENERAL MEDICAL AND SURGICAL HOSPITALS","SOURCE":"https://www.dhs.wisconsin.gov/guide/hospital.htm","SOURCEDATE":"2019-08-13T00:00:00.000Z","VAL_METHOD":"IMAGERY","VAL_DATE":"2014-02-10T00:00:00.000Z","WEBSITE":"http://www.vmh.org","STATE_ID":"1053","ALT_NAME":"NOT AVAILABLE","ST_FIPS":"55","OWNER":"NON-PROFIT","TTL_STAFF":-999,"BEDS":25,"TRAUMA":"LEVEL IV","HELIPAD":"N"},"id":107},
{"type":"Feature","geometry":{"type":"Point","coordinates":[-118.1309,33.93435]},"properties":{"ID":"0072390241","NAME":"PIH HOSPITAL - DOWNEY","ADDRESS":"11500 BROOKSHIRE AVENUE","CITY":"DOWNEY","STATE":"CA","ZIP":"90241","ZIP4":"NOT AVAILABLE","TELEPHONE":"(562) 904-5000","TYPE":"GENERAL ACUTE CARE","STATUS":"OPEN","POPULATION":199,"COUNTY":"LOS ANGELES","COUNTYFIPS":"06037","COUNTRY":"USA","LATITUDE":33.93435179800008,"LONGITUDE":-118.13090395999996,"NAICS_CODE":"622110","NAICS_DESC":"GENERAL MEDICAL AND SURGICAL HOSPITALS","SOURCE":"http://www.oshpd.ca.gov/hid/facility-listing.html","SOURCEDATE":"2019-08-02T00:00:00.000Z","VAL_METHOD":"IMAGERY/OTHER","VAL_DATE":"2015-01-14T00:00:00.000Z","WEBSITE":"http://www.pihhealth.org/","STATE_ID":"NOT AVAILABLE","ALT_NAME":"DOWNEY REGIONAL MEDICAL CENTER","ST_FIPS":"06","OWNER":"NON-PROFIT","TTL_STAFF":-999,"BEDS":199,"TRAUMA":"NOT AVAILABLE","HELIPAD":"N"},"id":108},
{"type":"Feature","geometry":{"type":"Point","coordinates":[-118.35972,33.83935]},"properties":{"ID":"0072790503","NAME":"PROVIDENCE LITTLE COMPANY OF MARY TRANSITIONAL CARE CENTER","ADDRESS":"4320 MARICOPA STREET","CITY":"TORRANCE","STATE":"CA","ZIP":"90503","ZIP4":"NOT AVAILABLE","TELEPHONE":"NOT AVAILABLE","TYPE":"GENERAL ACUTE CARE","STATUS":"OPEN","POPULATION":115,"COUNTY":"LOS ANGELES","COUNTYFIPS":"06037","COUNTRY":"USA","LATITUDE":33.83934811600005,"LONGITUDE":-118.35972151899995,"NAICS_CODE":"622110","NAICS_DESC":"GENERAL MEDICAL AND SURGICAL HOSPITALS","SOURCE":"http://www.oshpd.ca.gov/hid/facility-listing.html","SOURCEDATE":"2019-08-02T00:00:00.000Z","VAL_METHOD":"IMAGERY/OTHER","VAL_DATE":"2015-01-14T00:00:00.000Z","WEBSITE":"http://california.providence.org/","STATE_ID":"NOT AVAILABLE","ALT_NAME":"NOT AVAILABLE","ST_FIPS":"06","OWNER":"NON-PROFIT","TTL_STAFF":-999,"BEDS":115,"TRAUMA":"NOT AVAILABLE","HELIPAD":"N"},"id":109},
{"type":"Feature","geometry":{"type":"Point","coordinates":[-117.26409,34.05013]},"properties":{"ID":"0058592354","NAME":"LOMA LINDA UNIVERSITY CHILDREN'S HOSPITAL","ADDRESS":"11234 ANDERSON STREET","CITY":"LOMA LINDA","STATE":"CA","ZIP":"92354","ZIP4":"NOT AVAILABLE","TELEPHONE":"(800) 825-5437","TYPE":"CHILDREN","STATUS":"OPEN","POPULATION":343,"COUNTY":"SAN BERNARDINO","COUNTYFIPS":"06071","COUNTRY":"USA","LATITUDE":34.050130832000036,"LONGITUDE":-117.26409445499996,"NAICS_CODE":"622110","NAICS_DESC":"CHILDREN'S HOSPITALS, GENERAL","SOURCE":"http://www.oshpd.ca.gov/hid/facility-listing.html","SOURCEDATE":"2019-08-02T00:00:00.000Z","VAL_METHOD":"IMAGERY/OTHER","VAL_DATE":"2016-02-11T00:00:00.000Z","WEBSITE":"http://childrens-hospital.lomalindahealth.org/","STATE_ID":"NOT AVAILABLE","ALT_NAME":"NOT AVAILABLE","ST_FIPS":"06","OWNER":"NON-PROFIT","TTL_STAFF":-999,"BEDS":343,"TRAUMA":"NOT AVAILABLE","HELIPAD":"Y"},"id":110},
{"type":"Feature","geometry":{"type":"Point","coordinates":[-88.60105,44.01242]},"properties":{"ID":"0015254904","NAME":"ASCENSION NE WISCONSIN MERCY CAMPUS","ADDRESS":"500 S OAKWOOD RD","CITY":"OSHKOSH","STATE":"WI","ZIP":"54904","ZIP4":"NOT AVAILABLE","TELEPHONE":"(920) 223-2000","TYPE":"GENERAL ACUTE CARE","STATUS":"OPEN","POPULATION":157,"COUNTY":"WINNEBAGO","COUNTYFIPS":"55139","COUNTRY":"USA","LATITUDE":44.012420717000055,"LONGITUDE":-88.60104549299996,"NAICS_CODE":"622110","NAICS_DESC":"GENERAL MEDICAL AND SURGICAL HOSPITALS","SOURCE":"https://www.dhs.wisconsin.gov/guide/hospital.htm","SOURCEDATE":"2019-08-13T00:00:00.000Z","VAL_METHOD":"IMAGERY","VAL_DATE":"2020-05-05T00:00:00.000Z","WEBSITE":"http://www.affinityhealth.org","STATE_ID":"186","ALT_NAME":"NOT AVAILABLE","ST_FIPS":"55","OWNER":"NON-PROFIT","TTL_STAFF":-999,"BEDS":157,"TRAUMA":"NOT AVAILABLE","HELIPAD":"Y"},"id":111},
{"type":"Feature","geometry":{"type":"Point","coordinates":[-77.07525,38.91196]},"properties":{"ID":"0075420007","NAME":"MEDSTAR-GEORGETOWN UNIVERSITY MEDICAL CENTER","ADDRESS":"3800 RESERVOIR ROAD, NW","CITY":"WASHINGTON","STATE":"DC","ZIP":"20007","ZIP4":"NOT AVAILABLE","TELEPHONE":"(202) 444-2000","TYPE":"GENERAL ACUTE CARE","STATUS":"OPEN","POPULATION":609,"COUNTY":"DISTRICT OF COLUMBIA","COUNTYFIPS":"11001","COUNTRY":"USA","LATITUDE":38.911958508000055,"LONGITUDE":-77.07525457299994,"NAICS_CODE":"622110","NAICS_DESC":"GENERAL MEDICAL AND SURGICAL HOSPITALS","SOURCE":"http://doh.dc.gov/node/173192","SOURCEDATE":"2019-08-14T00:00:00.000Z","VAL_METHOD":"IMAGERY/OTHER","VAL_DATE":"2015-01-20T00:00:00.000Z","WEBSITE":"http://www.medstargeorgetown.org/#q={}","STATE_ID":"NOT AVAILABLE","ALT_NAME":"NOT AVAILABLE","ST_FIPS":"11","OWNER":"GOVERNMENT - STATE","TTL_STAFF":-999,"BEDS":609,"TRAUMA":"NOT AVAILABLE","HELIPAD":"Y"},"id":112},
{"type":"Feature","geometry":{"type":"Point","coordinates":[-82.20072,28.34796]},"properties":{"ID":"0031233525","NAME":"ADVENT HEALTH DADE CITY","ADDRESS":"13100 FORT KING RD","CITY":"DADE CITY","STATE":"FL","ZIP":"33525","ZIP4":"NOT AVAILABLE","TELEPHONE":"(352) 521-1100","TYPE":"GENERAL ACUTE CARE","STATUS":"OPEN","POPULATION":120,"COUNTY":"PASCO","COUNTYFIPS":"12101","COUNTRY":"USA","LATITUDE":28.347962860000052,"LONGITUDE":-82.20072007999994,"NAICS_CODE":"622110","NAICS_DESC":"GENERAL MEDICAL AND SURGICAL HOSPITALS","SOURCE":"http://www.floridahealthfinder.gov/facilitylocator/facilitysearch.aspx","SOURCEDATE":"2019-08-15T00:00:00.000Z","VAL_METHOD":"IMAGERY","VAL_DATE":"2013-11-06T00:00:00.000Z","WEBSITE":"www.bayfrontdadecity.com","STATE_ID":"9995","ALT_NAME":"NOT AVAILABLE","ST_FIPS":"12","OWNER":"PROPRIETARY","TTL_STAFF":-999,"BEDS":120,"TRAUMA":"NOT AVAILABLE","HELIPAD":"N"},"id":113},
{"type":"Feature","geometry":{"type":"Point","coordinates":[-80.12779,26.43719]},"properties":{"ID":"0007233484","NAME":"DELRAY MEDICAL CENTER","ADDRESS":"5352 LINTON BLVD","CITY":"DELRAY BEACH","STATE":"FL","ZIP":"33484","ZIP4":"NOT AVAILABLE","TELEPHONE":"(561) 498-4440","TYPE":"GENERAL ACUTE CARE","STATUS":"OPEN","POPULATION":536,"COUNTY":"PALM BEACH","COUNTYFIPS":"12099","COUNTRY":"USA","LATITUDE":26.43719284100007,"LONGITUDE":-80.12778774699996,"NAICS_CODE":"622110","NAICS_DESC":"CHILDREN'S HOSPITALS, GENERAL","SOURCE":"http://www.floridahealthfinder.gov/facilitylocator/facilitysearch.aspx","SOURCEDATE":"2019-08-15T00:00:00.000Z","VAL_METHOD":"IMAGERY","VAL_DATE":"2014-02-10T00:00:00.000Z","WEBSITE":"http://www.delraymedicalctr.com","STATE_ID":"10040","ALT_NAME":"NOT AVAILABLE","ST_FIPS":"12","OWNER":"PROPRIETARY","TTL_STAFF":-999,"BEDS":536,"TRAUMA":"LEVEL I","HELIPAD":"Y"},"id":114},
{"type":"Feature","geometry":{"type":"Point","coordinates":[-81.47669,28.14478]},"properties":{"ID":"0036034758","NAME":"POINCIANA MEDICAL CENTER","ADDRESS":"325 CYPRESS PKWY","CITY":"KISSIMMEE","STATE":"FL","ZIP":"34758","ZIP4":"NOT AVAILABLE","TELEPHONE":"(407) 530-2000","TYPE":"GENERAL ACUTE CARE","STATUS":"OPEN","POPULATION":76,"COUNTY":"OSCEOLA","COUNTYFIPS":"12097","COUNTRY":"USA","LATITUDE":28.14478076300003,"LONGITUDE":-81.47668785499997,"NAICS_CODE":"622110","NAICS_DESC":"GENERAL MEDICAL AND SURGICAL HOSPITALS","SOURCE":"http://www.floridahealthfinder.gov/facilitylocator/facilitysearch.aspx","SOURCEDATE":"2019-08-15T00:00:00.000Z","VAL_METHOD":"IMAGERY/OTHER","VAL_DATE":"2016-04-11T00:00:00.000Z","WEBSITE":"http://poincianamedicalcenter.com/","STATE_ID":"NOT AVAILABLE","ALT_NAME":"NOT AVAILABLE","ST_FIPS":"12","OWNER":"PROPRIETARY","TTL_STAFF":-999,"BEDS":76,"TRAUMA":"NOT AVAILABLE","HELIPAD":"Y"},"id":115},
{"type":"Feature","geometry":{"type":"Point","coordinates":[-71.36112,41.92408]},"properties":{"ID":"0009802703","NAME":"ARBOUR FULLER HOSPITAL","ADDRESS":"200 MAY STREET","CITY":"ATTLEBORO","STATE":"MA","ZIP":"02703","ZIP4":"NOT AVAILABLE","TELEPHONE":"(508) 761-8500","TYPE":"PSYCHIATRIC","STATUS":"OPEN","POPULATION":103,"COUNTY":"BRISTOL","COUNTYFIPS":"25005","COUNTRY":"USA","LATITUDE":41.924083848000066,"LONGITUDE":-71.36112256199993,"NAICS_CODE":"622210","NAICS_DESC":"PSYCHIATRIC AND SUBSTANCE ABUSE HOSPITALS","SOURCE":"http://www.mass.gov/eohhs/gov/departments/dph/programs/hcq/healthcare-quality/","SOURCEDATE":"2019-08-16T00:00:00.000Z","VAL_METHOD":"IMAGERY/OTHER","VAL_DATE":"2016-07-29T00:00:00.000Z","WEBSITE":"http://arbourhealth.com/organizations/arbour-fuller-hospital/","STATE_ID":"2836","ALT_NAME":"NOT AVAILABLE","ST_FIPS":"25","OWNER":"PROPRIETARY","TTL_STAFF":-999,"BEDS":103,"TRAUMA":"NOT AVAILABLE","HELIPAD":"N"},"id":116},
{"type":"Feature","geometry":{"type":"Point","coordinates":[-71.12124,42.35078]},"properties":{"ID":"0009702146","NAME":"ARBOUR HUMAN RESOURCE INSTITUTE","ADDRESS":"227 BABCOCK STREET","CITY":"BROOKLINE","STATE":"MA","ZIP":"02146","ZIP4":"NOT AVAILABLE","TELEPHONE":"(617) 731-3200","TYPE":"PSYCHIATRIC","STATUS":"OPEN","POPULATION":66,"COUNTY":"NORFOLK","COUNTYFIPS":"25021","COUNTRY":"USA","LATITUDE":42.35077951000005,"LONGITUDE":-71.12124228099998,"NAICS_CODE":"622210","NAICS_DESC":"PSYCHIATRIC AND SUBSTANCE ABUSE HOSPITALS","SOURCE":"http://www.mass.gov/eohhs/gov/departments/dph/programs/hcq/healthcare-quality/","SOURCEDATE":"2019-08-16T00:00:00.000Z","VAL_METHOD":"IMAGERY","VAL_DATE":"2016-07-29T00:00:00.000Z","WEBSITE":"http://arbourhealth.com/organizations/arbour-hri-hospital/","STATE_ID":"2005","ALT_NAME":"NOT AVAILABLE","ST_FIPS":"25","OWNER":"PROPRIETARY","TTL_STAFF":-999,"BEDS":66,"TRAUMA":"NOT AVAILABLE","HELIPAD":"N"},"id":117},
{"type":"Feature","geometry":{"type":"Point","coordinates":[-81.83269,30.10876]},"properties":{"ID":"0036232068","NAME":"ASSENCION ST. VINCENT'S MEDICAL CENTER CLAY COUNTY","ADDRESS":"1670 ST. VINCENT'S WAY","CITY":"MIDDLEBURG","STATE":"FL","ZIP":"32068","ZIP4":"NOT AVAILABLE","TELEPHONE":"(904) 602-1000","TYPE":"GENERAL ACUTE CARE","STATUS":"OPEN","POPULATION":106,"COUNTY":"CLAY","COUNTYFIPS":"12019","COUNTRY":"USA","LATITUDE":30.108762428000034,"LONGITUDE":-81.83268869199998,"NAICS_CODE":"622110","NAICS_DESC":"GENERAL MEDICAL AND SURGICAL HOSPITALS","SOURCE":"http://www.floridahealthfinder.gov/facilitylocator/facilitysearch.aspx","SOURCEDATE":"2019-08-15T00:00:00.000Z","VAL_METHOD":"IMAGERY/OTHER","VAL_DATE":"2016-04-12T00:00:00.000Z","WEBSITE":"http://www.jaxhealth.com/","STATE_ID":"NOT AVAILABLE","ALT_NAME":"NOT AVAILABLE","ST_FIPS":"12","OWNER":"NON-PROFIT","TTL_STAFF":-999,"BEDS":106,"TRAUMA":"NOT AVAILABLE","HELIPAD":"Y"},"id":118},
{"type":"Feature","geometry":{"type":"Point","coordinates":[-82.16233,29.16588]},"properties":{"ID":"0036334471","NAME":"ENCOMPASS HEALTH REHABILITATION HOSPITAL OF OCALA","ADDRESS":"2275 SW 22ND LANE","CITY":"OCALA","STATE":"FL","ZIP":"34471","ZIP4":"NOT AVAILABLE","TELEPHONE":"(352) 282-4000","TYPE":"REHABILITATION","STATUS":"OPEN","POPULATION":60,"COUNTY":"MARION","COUNTYFIPS":"12083","COUNTRY":"USA","LATITUDE":29.165875541000048,"LONGITUDE":-82.16233494499994,"NAICS_CODE":"622310","NAICS_DESC":"REHABILITATION HOSPITALS (EXCEPT ALCOHOLISM, DRUG ADDICTION)","SOURCE":"http://www.floridahealthfinder.gov/facilitylocator/facilitysearch.aspx","SOURCEDATE":"2019-08-15T00:00:00.000Z","VAL_METHOD":"IMAGERY","VAL_DATE":"2016-04-12T00:00:00.000Z","WEBSITE":"http://healthsouthocala.com/","STATE_ID":"NOT AVAILABLE","ALT_NAME":"NOT AVAILABLE","ST_FIPS":"12","OWNER":"PROPRIETARY","TTL_STAFF":-999,"BEDS":60,"TRAUMA":"NOT AVAILABLE","HELIPAD":"N"},"id":119},
{"type":"Feature","geometry":{"type":"Point","coordinates":[-72.19801,41.7411]},"properties":{"ID":"0003906250","NAME":"NATCHAUG HOSPITAL, INC.","ADDRESS":"189 STORRS RD","CITY":"MANSFIELD CENTER","STATE":"CT","ZIP":"06250","ZIP4":"NOT AVAILABLE","TELEPHONE":"(860) 456-1311","TYPE":"PSYCHIATRIC","STATUS":"OPEN","POPULATION":-999,"COUNTY":"TOLLAND","COUNTYFIPS":"09013","COUNTRY":"USA","LATITUDE":41.74110391900007,"LONGITUDE":-72.19801148199997,"NAICS_CODE":"622210","NAICS_DESC":"PSYCHIATRIC AND SUBSTANCE ABUSE HOSPITALS","SOURCE":"https://www.elicense.ct.gov/lookup/generateroster.aspx","SOURCEDATE":"2019-08-13T00:00:00.000Z","VAL_METHOD":"IMAGERY/OTHER","VAL_DATE":"2016-04-04T00:00:00.000Z","WEBSITE":"http://www.natchaug.org/","STATE_ID":"NOT AVAILABLE","ALT_NAME":"NOT AVAILABLE","ST_FIPS":"09","OWNER":"NON-PROFIT","TTL_STAFF":-999,"BEDS":57,"TRAUMA":"NOT AVAILABLE","HELIPAD":"N"},"id":120},
{"type":"Feature","geometry":{"type":"Point","coordinates":[-80.22246,27.13344]},"properties":{"ID":"0036634997","NAME":"ENCOMPASS HEALTH REHABILITATION HOSPITAL AT MARTIN HEALTH","ADDRESS":"5850 SE COMMUNITY DR","CITY":"STUART","STATE":"FL","ZIP":"34997","ZIP4":"NOT AVAILABLE","TELEPHONE":"(772) 324-3522","TYPE":"REHABILITATION","STATUS":"OPEN","POPULATION":54,"COUNTY":"MARTIN","COUNTYFIPS":"12085","COUNTRY":"USA","LATITUDE":27.133437293000043,"LONGITUDE":-80.22245581499999,"NAICS_CODE":"622110","NAICS_DESC":"GENERAL MEDICAL AND SURGICAL HOSPITALS","SOURCE":"http://www.floridahealthfinder.gov/facilitylocator/facilitysearch.aspx","SOURCEDATE":"2019-08-15T00:00:00.000Z","VAL_METHOD":"IMAGERY/OTHER","VAL_DATE":"2016-04-13T00:00:00.000Z","WEBSITE":"http://www.healthsouthmartin.com/","STATE_ID":"NOT AVAILABLE","ALT_NAME":"NOT AVAILABLE","ST_FIPS":"12","OWNER":"PROPRIETARY","TTL_STAFF":-999,"BEDS":54,"TRAUMA":"NOT AVAILABLE","HELIPAD":"N"},"id":121},
{"type":"Feature","geometry":{"type":"Point","coordinates":[-71.0663,42.36309]},"properties":{"ID":"0010502114","NAME":"SHRINERS' HOSPITAL FOR CHILDREN","ADDRESS":"51 BLOSSOM ST","CITY":"BOSTON","STATE":"MA","ZIP":"02114","ZIP4":"NOT AVAILABLE","TELEPHONE":"(617) 722-3000","TYPE":"CHILDREN","STATUS":"OPEN","POPULATION":30,"COUNTY":"SUFFOLK","COUNTYFIPS":"25025","COUNTRY":"USA","LATITUDE":42.363092548000054,"LONGITUDE":-71.06630187899998,"NAICS_CODE":"622110","NAICS_DESC":"CHILDREN'S HOSPITALS, GENERAL","SOURCE":"http://www.mass.gov/eohhs/gov/departments/dph/programs/hcq/healthcare-quality/","SOURCEDATE":"2019-08-16T00:00:00.000Z","VAL_METHOD":"IMAGERY","VAL_DATE":"2016-08-01T00:00:00.000Z","WEBSITE":"http://www.shrinershospitalsforchildren.org/locations/boston","STATE_ID":"2316","ALT_NAME":"NOT AVAILABLE","ST_FIPS":"25","OWNER":"NON-PROFIT","TTL_STAFF":-999,"BEDS":30,"TRAUMA":"NOT AVAILABLE","HELIPAD":"N"},"id":122},
{"type":"Feature","geometry":{"type":"Point","coordinates":[-71.04906,42.37851]},"properties":{"ID":"0010602129","NAME":"SPAULDING REHABILITATION HOSPITAL","ADDRESS":"300 1ST AVE","CITY":"BOSTON","STATE":"MA","ZIP":"02129","ZIP4":"NOT AVAILABLE","TELEPHONE":"(617) 573-7000","TYPE":"REHABILITATION","STATUS":"OPEN","POPULATION":132,"COUNTY":"SUFFOLK","COUNTYFIPS":"25025","COUNTRY":"USA","LATITUDE":42.37850907600006,"LONGITUDE":-71.04905554599998,"NAICS_CODE":"622310","NAICS_DESC":"REHABILITATION HOSPITALS (EXCEPT ALCOHOLISM, DRUG ADDICTION)","SOURCE":"http://www.mass.gov/eohhs/gov/departments/dph/programs/hcq/healthcare-quality/","SOURCEDATE":"2019-08-16T00:00:00.000Z","VAL_METHOD":"IMAGERY","VAL_DATE":"2016-08-01T00:00:00.000Z","WEBSITE":"http://spauldingrehab.org/","STATE_ID":"2321","ALT_NAME":"NOT AVAILABLE","ST_FIPS":"25","OWNER":"NON-PROFIT","TTL_STAFF":-999,"BEDS":132,"TRAUMA":"NOT AVAILABLE","HELIPAD":"N"},"id":123},
{"type":"Feature","geometry":{"type":"Point","coordinates":[-71.14571,41.70749]},"properties":{"ID":"0011402720","NAME":"DR JOHN C CORRIGAN MENTAL HEALTH CENTER","ADDRESS":"49 HILLSIDE STREET","CITY":"FALL RIVER","STATE":"MA","ZIP":"02720","ZIP4":"NOT AVAILABLE","TELEPHONE":"(508) 295-0880","TYPE":"PSYCHIATRIC","STATUS":"OPEN","POPULATION":-999,"COUNTY":"BRISTOL","COUNTYFIPS":"25005","COUNTRY":"USA","LATITUDE":41.707486913000025,"LONGITUDE":-71.14571446499997,"NAICS_CODE":"622210","NAICS_DESC":"PSYCHIATRIC AND SUBSTANCE ABUSE HOSPITALS","SOURCE":"http://www.mass.gov/eohhs/gov/departments/dph/programs/hcq/healthcare-quality/","SOURCEDATE":"2019-08-16T00:00:00.000Z","VAL_METHOD":"IMAGERY/OTHER","VAL_DATE":"2016-08-01T00:00:00.000Z","WEBSITE":"NOT AVAILABLE","STATE_ID":"2C7R","ALT_NAME":"NOT AVAILABLE","ST_FIPS":"25","OWNER":"GOVERNMENT - STATE","TTL_STAFF":-999,"BEDS":16,"TRAUMA":"NOT AVAILABLE","HELIPAD":"N"},"id":124},
{"type":"Feature","geometry":{"type":"Point","coordinates":[-70.95676,42.47162]},"properties":{"ID":"0012101904","NAME":"BAY RIDGE HOSPITAL BEVERLY","ADDRESS":"60 GRANITE STREET","CITY":"LYNN","STATE":"MA","ZIP":"01904","ZIP4":"NOT AVAILABLE","TELEPHONE":"(781) 922-3000","TYPE":"PSYCHIATRIC","STATUS":"OPEN","POPULATION":62,"COUNTY":"ESSEX","COUNTYFIPS":"25009","COUNTRY":"USA","LATITUDE":42.471620106000046,"LONGITUDE":-70.95676093099996,"NAICS_CODE":"622210","NAICS_DESC":"PSYCHIATRIC AND SUBSTANCE ABUSE HOSPITALS","SOURCE":"http://www.mass.gov/eohhs/gov/departments/dph/programs/hcq/healthcare-quality/","SOURCEDATE":"2019-08-16T00:00:00.000Z","VAL_METHOD":"IMAGERY","VAL_DATE":"2016-08-01T00:00:00.000Z","WEBSITE":"http://www.beverlyhospital.org/locations--services/locations/bayridge-hospital","STATE_ID":"2M5H","ALT_NAME":"NOT AVAILABLE","ST_FIPS":"25","OWNER":"NON-PROFIT","TTL_STAFF":-999,"BEDS":62,"TRAUMA":"NOT AVAILABLE","HELIPAD":"N"},"id":125},
{"type":"Feature","geometry":{"type":"Point","coordinates":[-72.47208,42.15578]},"properties":{"ID":"0012001056","NAME":"ENCOMPASS HEALTH HOSPITAL OF WESTERN MASS","ADDRESS":"222 STATE STREET","CITY":"LUDLOW","STATE":"MA","ZIP":"01056","ZIP4":"NOT AVAILABLE","TELEPHONE":"(413) 583-8820","TYPE":"REHABILITATION","STATUS":"OPEN","POPULATION":53,"COUNTY":"HAMPDEN","COUNTYFIPS":"25013","COUNTRY":"USA","LATITUDE":42.155775937000044,"LONGITUDE":-72.47207733799996,"NAICS_CODE":"622310","NAICS_DESC":"REHABILITATION HOSPITALS (EXCEPT ALCOHOLISM, DRUG ADDICTION)","SOURCE":"http://www.mass.gov/eohhs/gov/departments/dph/programs/hcq/healthcare-quality/","SOURCEDATE":"2019-08-16T00:00:00.000Z","VAL_METHOD":"IMAGERY/OTHER","VAL_DATE":"2016-08-01T00:00:00.000Z","WEBSITE":"http://www.healthsouthrehab.org/en/our-hospital","STATE_ID":"2912","ALT_NAME":"NOT AVAILABLE","ST_FIPS":"25","OWNER":"PROPRIETARY","TTL_STAFF":-999,"BEDS":53,"TRAUMA":"NOT AVAILABLE","HELIPAD":"N"},"id":126},
{"type":"Feature","geometry":{"type":"Point","coordinates":[-85.29455,37.09664]},"properties":{"ID":"0012142728","NAME":"T J HEALTH COLUMBIA","ADDRESS":"901 WESTLAKE DRIVE","CITY":"COLUMBIA","STATE":"KY","ZIP":"42728","ZIP4":"NOT AVAILABLE","TELEPHONE":"(270) 384-4753","TYPE":"GENERAL ACUTE CARE","STATUS":"OPEN","POPULATION":77,"COUNTY":"ADAIR","COUNTYFIPS":"21001","COUNTRY":"USA","LATITUDE":37.096641573000056,"LONGITUDE":-85.29454564999998,"NAICS_CODE":"622110","NAICS_DESC":"GENERAL MEDICAL AND SURGICAL HOSPITALS","SOURCE":"https://chfs.ky.gov/agencies/os/oig/dhc/documents/directories/hospital_directory.pdf","SOURCEDATE":"2019-08-11T00:00:00.000Z","VAL_METHOD":"IMAGERY","VAL_DATE":"2014-02-10T00:00:00.000Z","WEBSITE":"http://www.westlakeregionalhospital.com","STATE_ID":"100001","ALT_NAME":"NOT AVAILABLE","ST_FIPS":"21","OWNER":"NON-PROFIT","TTL_STAFF":-999,"BEDS":74,"TRAUMA":"NOT AVAILABLE","HELIPAD":"Y"},"id":127},
{"type":"Feature","geometry":{"type":"Point","coordinates":[-93.74694,40.75093]},"properties":{"ID":"0013050144","NAME":"DECATUR COUNTY HOSPITAL","ADDRESS":"1405 NORTHWEST CHURCH STREET","CITY":"LEON","STATE":"IA","ZIP":"50144","ZIP4":"NOT AVAILABLE","TELEPHONE":"(641) 446-4871","TYPE":"GENERAL ACUTE CARE","STATUS":"OPEN","POPULATION":25,"COUNTY":"DECATUR","COUNTYFIPS":"19053","COUNTRY":"USA","LATITUDE":40.750934665000045,"LONGITUDE":-93.74694077199996,"NAICS_CODE":"622110","NAICS_DESC":"GENERAL MEDICAL AND SURGICAL HOSPITALS","SOURCE":"https://dia-hfd.iowa.gov/dia_hfd/ctlentitysearch.do","SOURCEDATE":"2019-08-09T00:00:00.000Z","VAL_METHOD":"IMAGERY","VAL_DATE":"2016-04-15T00:00:00.000Z","WEBSITE":"http://www.decaturcountyhospital.org","STATE_ID":"NOT AVAILABLE","ALT_NAME":"NOT AVAILABLE","ST_FIPS":"19","OWNER":"GOVERNMENT - LOCAL","TTL_STAFF":-999,"BEDS":25,"TRAUMA":"LEVEL IV","HELIPAD":"Y"},"id":128},
{"type":"Feature","geometry":{"type":"Point","coordinates":[-95.25034,38.27988]},"properties":{"ID":"0004466032","NAME":"ANDERSON COUNTY HOSPITAL","ADDRESS":"421 SOUTH MAPLE STREET","CITY":"GARNETT","STATE":"KS","ZIP":"66032","ZIP4":"NOT AVAILABLE","TELEPHONE":"(785) 204-4000","TYPE":"CRITICAL ACCESS","STATUS":"OPEN","POPULATION":41,"COUNTY":"ANDERSON","COUNTYFIPS":"20003","COUNTRY":"USA","LATITUDE":38.27987699500005,"LONGITUDE":-95.25033865399996,"NAICS_CODE":"622110","NAICS_DESC":"GENERAL MEDICAL AND SURGICAL HOSPITALS","SOURCE":"http://www.kdheks.gov/bhfr/fac_list/","SOURCEDATE":"2019-08-16T00:00:00.000Z","VAL_METHOD":"IMAGERY","VAL_DATE":"2020-04-16T00:00:00.000Z","WEBSITE":"http://www.saint-lukes.org","STATE_ID":"H002001","ALT_NAME":"SAINT LUKE'S HOSPITAL OF GARNETT DBA ANDERSON COUNTY HOSPITAL","ST_FIPS":"20","OWNER":"NON-PROFIT","TTL_STAFF":-999,"BEDS":41,"TRAUMA":"LEVEL IV","HELIPAD":"Y"},"id":129},
{"type":"Feature","geometry":{"type":"Point","coordinates":[-101.25193,37.94659]},"properties":{"ID":"0007567860","NAME":"KEARNY COUNTY HOSPITAL","ADDRESS":"500 THORPE STREET","CITY":"LAKIN","STATE":"KS","ZIP":"67860","ZIP4":"NOT AVAILABLE","TELEPHONE":"(620) 355-7111","TYPE":"CRITICAL ACCESS","STATUS":"OPEN","POPULATION":25,"COUNTY":"KEARNY","COUNTYFIPS":"20093","COUNTRY":"USA","LATITUDE":37.94659326900006,"LONGITUDE":-101.25192991199998,"NAICS_CODE":"622110","NAICS_DESC":"GENERAL MEDICAL AND SURGICAL HOSPITALS","SOURCE":"http://www.kdheks.gov/bhfr/fac_list/","SOURCEDATE":"2019-08-16T00:00:00.000Z","VAL_METHOD":"IMAGERY","VAL_DATE":"2020-04-16T00:00:00.000Z","WEBSITE":"http://www.kearnycountyhospital.com","STATE_ID":"H047001","ALT_NAME":"KEARNY COUNTY HEALTH CARE FOUNDATION","ST_FIPS":"20","OWNER":"GOVERNMENT - LOCAL","TTL_STAFF":-999,"BEDS":25,"TRAUMA":"NOT AVAILABLE","HELIPAD":"N"},"id":130},
{"type":"Feature","geometry":{"type":"Point","coordinates":[-97.70394,39.12933]},"properties":{"ID":"0007767467","NAME":"OTTAWA COUNTY HEALTH CENTER","ADDRESS":"215 E 8TH STREET","CITY":"MINNEAPOLIS","STATE":"KS","ZIP":"67467","ZIP4":"NOT AVAILABLE","TELEPHONE":"(785) 392-2122","TYPE":"CRITICAL ACCESS","STATUS":"OPEN","POPULATION":42,"COUNTY":"OTTAWA","COUNTYFIPS":"20143","COUNTRY":"USA","LATITUDE":39.12933196400007,"LONGITUDE":-97.70394425099994,"NAICS_CODE":"622110","NAICS_DESC":"GENERAL MEDICAL AND SURGICAL HOSPITALS","SOURCE":"http://www.kdheks.gov/bhfr/fac_list/","SOURCEDATE":"2019-08-16T00:00:00.000Z","VAL_METHOD":"IMAGERY","VAL_DATE":"2020-04-17T00:00:00.000Z","WEBSITE":"http://www.ottawacountyhealthcenter.com","STATE_ID":"H072001","ALT_NAME":"GREAT PLAINS HEALTH ALLIANCE INC","ST_FIPS":"20","OWNER":"NON-PROFIT","TTL_STAFF":-999,"BEDS":42,"TRAUMA":"NOT AVAILABLE","HELIPAD":"N"},"id":131},
{"type":"Feature","geometry":{"type":"Point","coordinates":[-71.2369,42.2771]},"properties":{"ID":"0003502492","NAME":"BETH ISRAEL DEACONESS HOSPITAL - NEEDHAM","ADDRESS":"148 CHESTNUT STREET","CITY":"NEEDHAM","STATE":"MA","ZIP":"02492","ZIP4":"NOT AVAILABLE","TELEPHONE":"(781) 453-3000","TYPE":"GENERAL ACUTE CARE","STATUS":"OPEN","POPULATION":58,"COUNTY":"NORFOLK","COUNTYFIPS":"25021","COUNTRY":"USA","LATITUDE":42.277100000000075,"LONGITUDE":-71.23689999999993,"NAICS_CODE":"622110","NAICS_DESC":"GENERAL MEDICAL AND SURGICAL HOSPITALS","SOURCE":"http://www.mass.gov/eohhs/gov/departments/dph/programs/hcq/healthcare-quality/","SOURCEDATE":"2019-08-16T00:00:00.000Z","VAL_METHOD":"IMAGERY/OTHER","VAL_DATE":"2014-02-10T00:00:00.000Z","WEBSITE":"http://www.bidmc.org/centersanddepartments/departments/otherlocations/bethisraeldeaconesshospitalneedham.aspx","STATE_ID":"2054","ALT_NAME":"BETH ISRAEL DEACONESS HOSPITAL","ST_FIPS":"25","OWNER":"NON-PROFIT","TTL_STAFF":-999,"BEDS":58,"TRAUMA":"NOT AVAILABLE","HELIPAD":"N"},"id":132},
{"type":"Feature","geometry":{"type":"Point","coordinates":[-70.94575,41.74073]},"properties":{"ID":"0012402745","NAME":"VIBRA HOSPITAL OF SOUTHWESTERN MASSACHUSETTS","ADDRESS":"4499 ACUSHNET AVENUE","CITY":"NEW BEDFORD","STATE":"MA","ZIP":"02745","ZIP4":"NOT AVAILABLE","TELEPHONE":"(508) 995-6900","TYPE":"REHABILITATION","STATUS":"OPEN","POPULATION":90,"COUNTY":"BRISTOL","COUNTYFIPS":"25005","COUNTRY":"USA","LATITUDE":41.740725232000045,"LONGITUDE":-70.94575360699997,"NAICS_CODE":"622310","NAICS_DESC":"REHABILITATION HOSPITALS (EXCEPT ALCOHOLISM, DRUG ADDICTION)","SOURCE":"http://www.mass.gov/eohhs/gov/departments/dph/programs/hcq/healthcare-quality/","SOURCEDATE":"2019-08-16T00:00:00.000Z","VAL_METHOD":"IMAGERY","VAL_DATE":"2016-08-01T00:00:00.000Z","WEBSITE":"http://www.vhmass.com/","STATE_ID":"2224","ALT_NAME":"NEW BEDFORD REHABILITATION HOSPITAL","ST_FIPS":"25","OWNER":"PROPRIETARY","TTL_STAFF":-999,"BEDS":90,"TRAUMA":"NOT AVAILABLE","HELIPAD":"N"},"id":133},
{"type":"Feature","geometry":{"type":"Point","coordinates":[-71.2021,42.189]},"properties":{"ID":"0004002062","NAME":"NORWOOD HOSPITAL","ADDRESS":"800 WASHINGTON ROAD","CITY":"NORWOOD","STATE":"MA","ZIP":"02062","ZIP4":"NOT AVAILABLE","TELEPHONE":"(781) 769-4000","TYPE":"GENERAL ACUTE CARE","STATUS":"OPEN","POPULATION":215,"COUNTY":"NORFOLK","COUNTYFIPS":"25021","COUNTRY":"USA","LATITUDE":42.18900000000008,"LONGITUDE":-71.20209999999997,"NAICS_CODE":"622110","NAICS_DESC":"GENERAL MEDICAL AND SURGICAL HOSPITALS","SOURCE":"http://www.mass.gov/eohhs/gov/departments/dph/programs/hcq/healthcare-quality/","SOURCEDATE":"2019-08-16T00:00:00.000Z","VAL_METHOD":"IMAGERY/OTHER","VAL_DATE":"2014-02-10T00:00:00.000Z","WEBSITE":"https://www.norwood-hospital.org/","STATE_ID":"2114","ALT_NAME":"NORWOOD HOSPITAL","ST_FIPS":"25","OWNER":"PROPRIETARY","TTL_STAFF":-999,"BEDS":215,"TRAUMA":"NOT AVAILABLE","HELIPAD":"Y"},"id":134},
{"type":"Feature","geometry":{"type":"Point","coordinates":[-70.4681,41.73298]},"properties":{"ID":"0012602537","NAME":"SPAULDING REHABILITATION HOSPITAL CAPE COD","ADDRESS":"311 SERVICE ROAD","CITY":"SANDWICH","STATE":"MA","ZIP":"02537","ZIP4":"NOT AVAILABLE","TELEPHONE":"(508) 833-4000","TYPE":"REHABILITATION","STATUS":"OPEN","POPULATION":60,"COUNTY":"BARNSTABLE","COUNTYFIPS":"25001","COUNTRY":"USA","LATITUDE":41.732984497000075,"LONGITUDE":-70.46810283699995,"NAICS_CODE":"622310","NAICS_DESC":"REHABILITATION HOSPITALS (EXCEPT ALCOHOLISM, DRUG ADDICTION)","SOURCE":"http://www.mass.gov/eohhs/gov/departments/dph/programs/hcq/healthcare-quality/","SOURCEDATE":"2019-08-16T00:00:00.000Z","VAL_METHOD":"IMAGERY/OTHER","VAL_DATE":"2016-08-02T00:00:00.000Z","WEBSITE":"http://spauldingrehab.org/locations/sandwich-ma/","STATE_ID":"2FXY","ALT_NAME":"NOT AVAILABLE","ST_FIPS":"25","OWNER":"NON-PROFIT","TTL_STAFF":-999,"BEDS":60,"TRAUMA":"NOT AVAILABLE","HELIPAD":"N"},"id":135},
{"type":"Feature","geometry":{"type":"Point","coordinates":[-71.1094,42.39]},"properties":{"ID":"0006702143","NAME":"CAMBRIDGE HEALTH ALLIANCE - SOMERVILLE CAMPUS","ADDRESS":"230 HIGHLAND AVENUE","CITY":"SOMERVILLE","STATE":"MA","ZIP":"02143","ZIP4":"NOT AVAILABLE","TELEPHONE":"NOT AVAILABLE","TYPE":"GENERAL ACUTE CARE","STATUS":"OPEN","POPULATION":124,"COUNTY":"MIDDLESEX","COUNTYFIPS":"25017","COUNTRY":"USA","LATITUDE":42.39000000000004,"LONGITUDE":-71.10939999999994,"NAICS_CODE":"622110","NAICS_DESC":"GENERAL MEDICAL AND SURGICAL HOSPITALS","SOURCE":"http://www.mass.gov/eohhs/gov/departments/dph/programs/hcq/healthcare-quality/","SOURCEDATE":"2019-08-16T00:00:00.000Z","VAL_METHOD":"IMAGERY/OTHER","VAL_DATE":"2013-12-16T00:00:00.000Z","WEBSITE":"http://www.challiance.org/locations/somervillehospitalcampus.aspx","STATE_ID":"67","ALT_NAME":"SOMERVILLE HOSPITAL","ST_FIPS":"25","OWNER":"GOVERNMENT - DISTRICT/AUTHORITY","TTL_STAFF":-999,"BEDS":124,"TRAUMA":"NOT AVAILABLE","HELIPAD":"N"},"id":136},
{"type":"Feature","geometry":{"type":"Point","coordinates":[-72.59237,42.12132]},"properties":{"ID":"0012701104","NAME":"SHRINERS' HOSPITAL FOR CHILDREN","ADDRESS":"516 CAREW ST","CITY":"SPRINGFIELD","STATE":"MA","ZIP":"01104","ZIP4":"NOT AVAILABLE","TELEPHONE":"(413) 787-2000","TYPE":"CHILDREN","STATUS":"OPEN","POPULATION":40,"COUNTY":"HAMPDEN","COUNTYFIPS":"25013","COUNTRY":"USA","LATITUDE":42.12131502700004,"LONGITUDE":-72.59237294999997,"NAICS_CODE":"622110","NAICS_DESC":"CHILDREN'S HOSPITALS, GENERAL","SOURCE":"http://www.mass.gov/eohhs/gov/departments/dph/programs/hcq/healthcare-quality/","SOURCEDATE":"2019-08-16T00:00:00.000Z","VAL_METHOD":"IMAGERY","VAL_DATE":"2016-08-02T00:00:00.000Z","WEBSITE":"http://www.shrinershospitalsforchildren.org/locations/springfield","STATE_ID":"2152","ALT_NAME":"NOT AVAILABLE","ST_FIPS":"25","OWNER":"NON-PROFIT","TTL_STAFF":-999,"BEDS":40,"TRAUMA":"NOT AVAILABLE","HELIPAD":"N"},"id":137},
{"type":"Feature","geometry":{"type":"Point","coordinates":[-94.35205,35.35587]},"properties":{"ID":"0000372903","NAME":"MERCY HOSPITAL FORT SMITH","ADDRESS":"7301 ROGERS AVENUE","CITY":"FORT SMITH","STATE":"AR","ZIP":"72903","ZIP4":"NOT AVAILABLE","TELEPHONE":"(479) 314-6000","TYPE":"GENERAL ACUTE CARE","STATUS":"OPEN","POPULATION":336,"COUNTY":"SEBASTIAN","COUNTYFIPS":"05131","COUNTRY":"USA","LATITUDE":35.35586599100003,"LONGITUDE":-94.35205496699996,"NAICS_CODE":"622110","NAICS_DESC":"GENERAL MEDICAL AND SURGICAL HOSPITALS","SOURCE":"http://www.healthy.arkansas.gov/programsservices/hslicensingregulation/healthfacilityservices/pages/providerlists.aspx","SOURCEDATE":"2019-08-08T00:00:00.000Z","VAL_METHOD":"IMAGERY/OTHER","VAL_DATE":"2014-02-10T00:00:00.000Z","WEBSITE":"http://www.stedwardmercy.com","STATE_ID":"040062","ALT_NAME":"NOT AVAILABLE","ST_FIPS":"05","OWNER":"NON-PROFIT","TTL_STAFF":-999,"BEDS":336,"TRAUMA":"LEVEL III","HELIPAD":"Y"},"id":138},
{"type":"Feature","geometry":{"type":"Point","coordinates":[-94.41875,35.37394]},"properties":{"ID":"0007472901","NAME":"HEALTHSOUTH REHABILITATION HOSPITAL OF FORT SMITH","ADDRESS":"1401 SOUTH J STREET","CITY":"FORT SMITH","STATE":"AR","ZIP":"72901","ZIP4":"NOT AVAILABLE","TELEPHONE":"(479) 785-3300","TYPE":"REHABILITATION","STATUS":"OPEN","POPULATION":80,"COUNTY":"SEBASTIAN","COUNTYFIPS":"05131","COUNTRY":"USA","LATITUDE":35.373940305000076,"LONGITUDE":-94.41875448199994,"NAICS_CODE":"622310","NAICS_DESC":"REHABILITATION HOSPITALS (EXCEPT ALCOHOLISM, DRUG ADDICTION)","SOURCE":"http://www.healthy.arkansas.gov/programsservices/hslicensingregulation/healthfacilityservices/pages/providerlists.aspx","SOURCEDATE":"2019-08-08T00:00:00.000Z","VAL_METHOD":"IMAGERY","VAL_DATE":"2013-09-17T00:00:00.000Z","WEBSITE":"http://www.healthsouthfortsmith.com","STATE_ID":"043028","ALT_NAME":"NOT AVAILABLE","ST_FIPS":"05","OWNER":"PROPRIETARY","TTL_STAFF":-999,"BEDS":80,"TRAUMA":"NOT AVAILABLE","HELIPAD":"Y"},"id":139},
{"type":"Feature","geometry":{"type":"Point","coordinates":[-91.73107,35.23409]},"properties":{"ID":"0009700000","NAME":"WHITE COUNTY MEDICAL CENTER - SOUTH CAMPUS","ADDRESS":"1200 SOUTH MAIN STREET","CITY":"SEARCY","STATE":"AR","ZIP":"72143","ZIP4":"NOT AVAILABLE","TELEPHONE":"(501) 278-3100","TYPE":"GENERAL ACUTE CARE","STATUS":"OPEN","POPULATION":193,"COUNTY":"WHITE","COUNTYFIPS":"05145","COUNTRY":"USA","LATITUDE":35.23409441100006,"LONGITUDE":-91.73107431099999,"NAICS_CODE":"622110","NAICS_DESC":"GENERAL MEDICAL AND SURGICAL HOSPITALS","SOURCE":"http://www.healthy.arkansas.gov/programsservices/hslicensingregulation/healthfacilityservices/pages/providerlists.aspx","SOURCEDATE":"2019-08-08T00:00:00.000Z","VAL_METHOD":"IMAGERY/OTHER","VAL_DATE":"2014-02-10T00:00:00.000Z","WEBSITE":"http://www.wcmc.org","STATE_ID":"040014DHFS","ALT_NAME":"NOT AVAILABLE","ST_FIPS":"05","OWNER":"NON-PROFIT","TTL_STAFF":-999,"BEDS":193,"TRAUMA":"NOT AVAILABLE","HELIPAD":"Y"},"id":140},
{"type":"Feature","geometry":{"type":"Point","coordinates":[-91.697,35.25189]},"properties":{"ID":"0010172143","NAME":"WHITE COUNTY MEDICAL CENTER - NORTH CAMPUS","ADDRESS":"3214 EAST RACE AVENUE","CITY":"SEARCY","STATE":"AR","ZIP":"72143","ZIP4":"NOT AVAILABLE","TELEPHONE":"(501) 268-6121","TYPE":"GENERAL ACUTE CARE","STATUS":"OPEN","POPULATION":286,"COUNTY":"WHITE","COUNTYFIPS":"05145","COUNTRY":"USA","LATITUDE":35.25188604400006,"LONGITUDE":-91.69700113099998,"NAICS_CODE":"622110","NAICS_DESC":"GENERAL MEDICAL AND SURGICAL HOSPITALS","SOURCE":"http://www.healthy.arkansas.gov/programsservices/hslicensingregulation/healthfacilityservices/pages/providerlists.aspx","SOURCEDATE":"2019-08-08T00:00:00.000Z","VAL_METHOD":"IMAGERY/OTHER","VAL_DATE":"2014-02-10T00:00:00.000Z","WEBSITE":"http://www.wcmc.org","STATE_ID":"040014","ALT_NAME":"NOT AVAILABLE","ST_FIPS":"05","OWNER":"NON-PROFIT","TTL_STAFF":-999,"BEDS":286,"TRAUMA":"LEVEL III","HELIPAD":"Y"},"id":141},
{"type":"Feature","geometry":{"type":"Point","coordinates":[-93.1573,35.22048]},"properties":{"ID":"0010272834","NAME":"RIVER VALLEY MEDICAL CENTER","ADDRESS":"200 NORTH THIRD STREET","CITY":"DARDANELLE","STATE":"AR","ZIP":"72834","ZIP4":"NOT AVAILABLE","TELEPHONE":"(479) 229-4677","TYPE":"CRITICAL ACCESS","STATUS":"OPEN","POPULATION":35,"COUNTY":"YELL","COUNTYFIPS":"05149","COUNTRY":"USA","LATITUDE":35.22047613900003,"LONGITUDE":-93.15729816599998,"NAICS_CODE":"622110","NAICS_DESC":"GENERAL MEDICAL AND SURGICAL HOSPITALS","SOURCE":"http://www.healthy.arkansas.gov/programsservices/hslicensingregulation/healthfacilityservices/pages/providerlists.aspx","SOURCEDATE":"2019-08-08T00:00:00.000Z","VAL_METHOD":"IMAGERY/OTHER","VAL_DATE":"2014-02-10T00:00:00.000Z","WEBSITE":"NOT AVAILABLE","STATE_ID":"041302","ALT_NAME":"NOT AVAILABLE","ST_FIPS":"05","OWNER":"PROPRIETARY","TTL_STAFF":-999,"BEDS":35,"TRAUMA":"LEVEL IV","HELIPAD":"N"},"id":142},
{"type":"Feature","geometry":{"type":"Point","coordinates":[-93.08882,34.12291]},"properties":{"ID":"0002271923","NAME":"BAPTIST HEALTH MEDICAL CENTER - ARKADELPHIA","ADDRESS":"3050 TWIN RIVERS DRIVE","CITY":"ARKADELPHIA","STATE":"AR","ZIP":"71923","ZIP4":"NOT AVAILABLE","TELEPHONE":"(870) 245-2622","TYPE":"CRITICAL ACCESS","STATUS":"OPEN","POPULATION":25,"COUNTY":"CLARK","COUNTYFIPS":"05019","COUNTRY":"USA","LATITUDE":34.12291356600008,"LONGITUDE":-93.08882416299997,"NAICS_CODE":"622110","NAICS_DESC":"GENERAL MEDICAL AND SURGICAL HOSPITALS","SOURCE":"http://www.healthy.arkansas.gov/programsservices/hslicensingregulation/healthfacilityservices/pages/providerlists.aspx","SOURCEDATE":"2019-08-08T00:00:00.000Z","VAL_METHOD":"IMAGERY/OTHER","VAL_DATE":"2014-02-10T00:00:00.000Z","WEBSITE":"http://www.baptist-health.com/locations/accesspoint.aspx?accesspointid=187","STATE_ID":"041321","ALT_NAME":"NOT AVAILABLE","ST_FIPS":"05","OWNER":"NON-PROFIT","TTL_STAFF":-999,"BEDS":25,"TRAUMA":"LEVEL IV","HELIPAD":"Y"},"id":143}
]}